Address,Latitude,Longitude
"5/100 Eastern Rd, Bungarribee NSW 2767",-33.76847329990496,150.8652664967197
"Lot 25/ 2140 The Northern Rd, Luddehham NSW 2745",,
"17 STRANGWAYS ST, CURTIN ACT 2605",-35.32621871489134,149.08138739506805
"2 Oxley Highway, Ravenswood NSW 2824",-31.695949782516102,147.84045575176427
"Cnr Tharwa Drive & Norman Lindsay Street, Conder ACT 2906",-35.4592733,149.1043282
"48-56 Gardeners Road, Kingsford NSW 2032",-33.924309756261025,151.22787549774543
"3 DUNK PL, ORAN PARK NSW 2570",-33.99484225,150.72776874145728
"110 Anzac Parade & Goodwood Street, Kensington NSW 2033",51.4989948,-0.1991229
"57 URANA ST, LOCKHART NSW 2656",-35.22361875746914,146.71179373732514
"213-253 Parramatta Rd & Walker St, Five Dock NSW 2046",-33.8690024,151.1290231
"3 EDWARD ST, NORTH STAR NSW 2408",-28.9292275255866,150.3918210364964
"1466 Kyogle Rd, Uki NSW 2484",-28.41380685,153.3346842491029
"425 Crown Street, Wollongong West NSW 2500",-34.425917251412685,150.87580744483031
"15 Mawson Place, Mawson ACT 2607",-35.36555009883136,149.09390976735028
"18 Solander Road, Kings Langley NSW 2147",-33.75562492502466,150.94475848554126
"27-41 KING ST, WARRAWONG NSW 2502",-34.49511051090557,150.88883408751775
"4 Ryde Rd, Hunters Hill NSW 2110",-33.83054724126674,151.14083744518229
"920 Richmond Rd, Marsden Park NSW 2765",-33.7157355,150.8426435
"516 Punchbowl Rd, LAKEMBA NSW 2195",-33.91462302931014,151.0688385319431
"98 Park Road, Auburn NSW 2144",-33.859852528246485,151.02827622413272
"74-78 Auburn Road, Auburn NSW 2144",-33.85035044769036,151.0331494607002
"Cnr Bombala & Massie Streets, Cooma NSW 2630",-36.23563,149.1264221
"438 CROWN ST, WEST WOLLONGONG NSW 2500",-34.425917251412685,150.87580744483031
"47 Church St (Cnr Mortimer St), Mudgee NSW 2850",-32.5980702,149.5886383
"544 Pacific Hwy, Killara NSW 2071",-33.7697416,151.1599696
"65 Bexley Rd, Campsie NSW 2194",-33.92082043689635,151.106206611387
"451 Nth Liverpool Rd, Bonnyrigg NSW 2177",55.8751189,-3.1059076
"Mid Western Hwy & Nicholson Lane, Wyalong NSW 2671",-33.9267813,147.2458929
"85 MAIN ST, YOUNG NSW 2594",-34.31226873661476,148.29569999467063
"406 Pacific Hwy, BELMONT NORTH NSW 2280",-33.0247496,151.66237474425049
"2 GIDLEY ST, MOLONG NSW 2866",-33.09022285,148.86958621409403
"15 Clarencetown Road, Dungog NSW 2420",-32.347200900000004,151.62624385440475
"99 Bellevue Road, FIGTREE NSW 2525",-34.426313560793886,150.85248609701176
"521 Carrington Road, LONDONDERRY NSW 2753",-33.64571152860687,150.74087020147368
"99 Barrier Hwy, COBAR NSW 2835",-31.505077163108645,145.7719818695611
"Cnr. Denison & Molong St, Condobolin NSW 2877",-33.0880805,147.1479606
"28 Princes Highway, Arncliffe NSW 2205",-33.93684187920414,151.1496806988721
"13124 Hume Highway, Sutton Forest NSW 2577",-34.608135830577936,150.22609494695556
"133-137 Targo, Girraween NSW 2145",-33.799269399128015,150.95190047602154
"Corner Quondola Street & Bullara Street, Pambula NSW 2549",-36.928848,149.8752844
"87-89, Flinders Street, Port Kembla NSW 2505",-34.47300899342701,150.88699597706994
"632 Warringah Road, Forestville NSW 2087",-33.75506007317056,151.22212764684616
"572-576 Hume Hwy, CASULA NSW 2170",-33.9477626,150.90744495
"40 Industrial Drive, Mayfield NSW 2304",-32.89159955359307,151.7451341152057
"69 DAVIES RD, PADSTOW NSW 2211",-33.9529271,151.03819370000002
"100 NEWCASTLE ST, FYSHWICK ACT 2609",-35.324863786471475,149.1719987516217
"6 STEPHENS RD, CRESTWOOD NSW 2620",-35.34842067802609,149.20813346303675
"18-20 ZARA ST, GOOLGOWI NSW 2652",-33.97872095624071,145.7140112857877
"59 GORDON ST, PORT MACQUARIE NSW 2444",-31.434471653326913,152.90754819814214
"179-181 Mona Vale Rd, St Ives NSW 2075",-33.73284444542362,151.1555575178468
"5885 Tweed ValleyWay, Mooball NSW 2483",-28.4436015,153.491879
"162-166 Pioneer Rd, TOWRADGI NSW 2518",-34.384919692279574,150.90665381392478
"1370-1380 Camden Valley Hwy, LEPPINGTON NSW 2179",-33.9650028,150.8011028
"72 Thorney Rd, FAIRFIELD WEST NSW 2165",-33.87366575,150.92421334734468
"89-91 CHURCH ST, GLOUCESTER NSW 2422",-32.0085421,151.9579251
"86-88 MAITLAND RD, MAYFIELD NSW 2304",-32.89613837558291,151.73510276085025
"106 EDWARD ST, WAGGA WAGGA NSW 2650",-35.11863692136161,147.36732675715888
"Lot 1 Ben Lomond Road, MINTO NSW 2566",-34.02783368076821,150.84085988824435
"2637 Irrigation Way, Leeton NSW 2705",-34.517712637572906,146.27378492126573
"16 BALLINA RD, LISMORE NSW 2480",-28.814308355990217,153.27971622811884
"Hume Highway, Marulan North NSW 2579",,
"159 ROUSE ST, TENTERFIELD NSW 2372",-29.049753592818437,152.01983896131023
"152-158 Princes Hwy, Dapto NSW 2530",-34.496177700000004,150.7923250656537
"45 ROOKWOOD RD, YAGOONA NSW 2199",-33.90280351587151,151.03696456703258
"133-137 Cary St, Toronto NSW 2283",-33.01295651321346,151.5931419570996
"518 Rocky Point Road, Sans Souci NSW 2219",-34.00413357288782,151.12834412042315
"297-299 Bunnerong Road, Pagewood NSW 2035",-33.93826978477322,151.22924415175004
"66 Captain Cook Drive, Caringbah NSW 2229",-34.03282607375231,151.12678113761893
"22 Charlotte Street, ASHFIELD NSW 2131",-33.884813766659356,151.12716359275183
"50-52 Ocean Beach Rd (Cnr Rawson St), Woy Woy NSW 2256",-33.4880548,151.3274925
"1389 Camden Valley Way, LEPPINGTON NSW 2179",-33.9922682,150.78899545000002
"787 MEDOWIE RD, MEDOWIE NSW 2318",-32.7398716,151.8672559
"133 CESSNOCK RD, NEATH NSW 2326",-32.827079844312856,151.40814486629662
"107 ANDERSON DR, TARRO NSW 2322",-32.8076023,151.65885387765542
"119 NEW ENGLAND HWY, WILLOW TREE NSW 2339",-31.674030619020836,150.7476851047904
"1-3 CHURCH ST, PORT KEMBLA NSW 2505",-34.48496514660182,150.90383011895025
"321 MILES FRANKLIN DR, TALBINGO NSW 2720",-35.58892702103646,148.28328932612544
"214 SYDNEY RD, KELSO NSW 2795",-33.41947140501427,149.61370434271274
"475 Cleveland St, Redfern NSW 2016",-33.88916175330202,151.2014674777517
"121 Banna Avenue, Griffith NSW 2680",-34.28697595936215,146.03801312260424
"30 Hovell Street, COOTAMUNDRA NSW 2590",-34.64814177806074,148.02248413151997
"102-104 Queen Elizabeth Drive, Coraki NSW 2471",-28.992315221587344,153.28193990783336
"12B Oatley Parade, Oatley NSW 2223",-33.9834663847237,151.07914011331658
"257 Guildford Rd, GUILDFORD NSW 2161",-33.854161363157644,150.9868741394422
"153 Coreen Ave Cnr Castlereagh Rd, Penrith NSW 2750",54.6639133,-2.7522047
"398 Merrylands Rd (Cnr Fowler Rd), Merrylands NSW 2160",-33.8350765,150.9860379
"23-27 Stockton St, Nelson Bay NSW 2315",-32.722805267198005,152.14334732316152
"45 Hambledon Road, Quakers Hill NSW 2763",-33.714830250875,150.89287586433082
"73-81 Marrickville Road, Marrickville NSW 2204",-33.914997290151376,151.16423284094492
"108 Sirus Drive, Lakewood NSW 2443",39.7085736,-105.0846694
"4 High Street, Wauchope NSW 2446",-31.45805785,152.7352837975937
"39 Alexandra St, GRENFELL NSW 2810",-33.88609747567923,148.15749101949027
"Corner Crown & Darling Streets, West Wollongong NSW 2500",-34.4242537,150.8673533
"102 Maloney St, Eastlakes NSW 2018",-33.923576692193734,151.20694877705597
"419-437 Goonoo-Goonoo Road, Tamworth NSW 2340",-31.111785224186235,150.92335003447727
"67 Wallarah Rd (Cnr Edith St), Gorokan NSW 2263",-33.2562494,151.5140288
"105 Wyee Road, WYEE NSW 2259",-33.18240927975115,151.48755999650885
"16 Marine Parade, STUARTS POINT NSW 2441",-30.8209569,152.993707
"Cnr Thirlmere Way & Remembrance Drive, Tahmoor NSW 2573",-34.2253646,150.5907489
"95 BALLANTRAE DR, ST ANDREWS NSW 2566",-34.02035535615191,150.82804714236454
"91 Glossop St, North St Marys NSW 2760",-33.759370086017896,150.78125699831372
"62 Deering Street, ULLADULLA NSW 2539",-35.36219852843037,150.47187958238442
"153 Princess Highway, ULLADULLA NSW 2539",-35.3621503,150.4751713
"90 Victoria St, TEMORA NSW 2666",-34.447673461172776,147.54361080828048
"84 Miller Street, Gilgandra NSW 2827",-31.70773352638746,148.67116940274536
144 Meade St Glenn Innes NSW 2370,-29.7385108,151.7357523
"2355 Camden Valley Way (Corner Beech Road), Casula NSW 2170",-33.9522222,150.8952778
"88 - 92 Clinton Street, Goulburn NSW 2580",-34.75248879741018,149.70605865942045
"15-17 CASTLEREAGH ST, GILGANDRA NSW 2827",-31.712504681404134,148.66699333207748
"630 Forest Road, BEXLEY NSW 2207",-33.95282796349998,151.1218117817768
"112 Kalander Street, East Nowra NSW 2541",-34.88222519999999,150.60794766136397
"320 Lane Cove Road, North Ryde NSW 2113",-33.7923334,151.1201602
"174 Woodward Street, Orange NSW 2800",-33.2786666,149.08794142899114
"178-184 Victoria Road (Corner Moodie Street), Rozelle NSW 2039",-33.8645002,151.1743543
"42 Ambrose Street, CAREY BAY NSW 2283",-33.02285997778349,151.60503490630919
"105 St. James rd., New Lambton NSW 2302",-32.933102841488676,151.7203346059656
"41-43 ADAMS ST, GOODOOGA NSW 2838",-29.115823545765824,147.4506406921766
"Corner Pacific Highway & London Drive, Wadalba NSW 2259",-33.2733333,151.4677778
"126-130 Broadway St, JUNEE NSW 2663",-34.81502565,147.6726749913009
"2656 Waterfall Way, THORA NSW 2454",-30.425048,152.77870053177966
"35 River Street, Woolgoolga NSW 2456",-30.1145766,153.1930111
"412-416 Maitland Road & Frith Street, Mayfield West NSW 2304",-32.890084,151.7262824
"9 Armidale Road, Coutts Crossing NSW 2460",-29.828176550000002,152.8913991881443
"Cnr Pacific Hwy & Old M'Land, Hexham NSW 2322",54.971478,-2.1017927
"7  Wyangan Avenue, Griffith NSW 2680",-34.277144540859936,146.03966485497824
"UNIT 1 105 BENT ST, SOUTH GRAFTON NSW 2460",-29.7130224,152.9374417
"186 Pacific Highway, Tuggerah NSW 2259",-33.2942415,151.4222523
"345 Avoca Street, RANDWICK NSW 2031",-33.92065243111525,151.24043273282788
"84 MacQuoid Street, QUEANBEYAN EAST NSW 2620",-35.35117807861385,149.2407660283097
"1563 WISEMANS FERRY RD, MAROOTA NSW 2756",-33.50350901045278,150.95470868881114
"50-54 Riverside Drive, Nambucca Heads NSW 2448",-30.652262,152.99158345188704
"88 Centre St (Cnr Richmond St), Casino NSW 2470",53.450634,-6.1583261
"26 HOUTMAN ST, EAST WAGGA WAGGA NSW 2650",-35.12518205,147.40153435000002
"365 MAIN RD, NORAVILLE NSW 2263",-33.26816197761814,151.55411287777082
"2 TRANSPORT DR, BROCKLEHURST NSW 2830",-32.18299032135235,148.6205155449625
"81 Victoria Road & Macarthur Street, Parramatta NSW 2150",-33.8139843,151.002666
"656 WARRINGAH RD, FORESTVILLE NSW 2087",-33.76059899482102,151.21483745161882
"39-41 Mustang Avenue, Canberra Airport ACT 2609",-35.304391,149.1936903
"16 Princes Highway, NAROOMA NSW 2546",-36.27607287300152,150.12664233289112
"227 Military Rd, Cremorne NSW 2090",-33.828608140596685,151.2291258474425
"210 High Street, WAUCHOPE NSW 2446",-31.4666056,152.7191446
"67 STEWART AV, HAMILTON SOUTH NSW 2303",-32.93083034609292,151.75411154604225
"449 Great Western Highway, WENTWORTHVILLE NSW 2145",-33.816048931003735,150.97204916201127
"21 Maitland Road, Hexham NSW 2322",-32.8183063612938,151.67968320203556
"67 Shepherds Dr, CHERRYBROOK NSW 2126",-33.720658099999994,151.04517835951808
"61 Railway Avenue, BUNDANOON NSW 2578",-34.6552621,150.30400023807397
"71 Appin Road, Appin NSW 2560",-34.160840435173405,150.78960154951938
"98 PARK RD, AUBURN NSW 2144",-33.859852528246485,151.02827622413272
"164 TONGARRA RD, ALBION PARK NSW 2527",-34.5711553,150.7699356
"2 Lagoon St, Guyra NSW 2365",-30.216935137428298,151.66732909205987
"1131 Great Western Hwy, LITHGOW NSW 2790",-33.43852721635969,150.11357212019664
"963 Old Princes Hwy, Engadine NSW 2233",-34.06462180794637,151.0168954267246
"1-5 James St, NARRABRI NSW 2390",-30.330072207943388,149.79356170823962
"136 Woodlark St, LISMORE NSW 2480",-28.807201000069227,153.2783528573623
"24 Murray Road, WINGHAM NSW 2429",-31.867594738999042,152.35521972929757
"636-644 Woodville Rd, OLD GUILDFORD NSW 2161",-33.8636111,150.9844444
"122 PRINCES HWY, BODALLA NSW 2545",-36.0938702,150.0518816
"21 ABBOTT ST, GUNNEDAH NSW 2380",-30.980582400000003,150.25535215
"23-25 Cardigan Street, TULLAMORE NSW 2874",-32.63609555372818,147.56403344662192
"112 Minjungbal Dr, TWEED HEADS SOUTH NSW 2486",-28.197393840095756,153.54365623104295
"76 Glossop Street, St Marys NSW 2760",-33.77018524916999,150.77969089526738
"99 Diadem Street, Lismore NSW 2480",-28.81189965,153.2871006072677
"20 LACHLAN ST, CONDOBOLIN NSW 2877",-33.09035635544849,147.14821316200621
"102 Gregory Street, South West Rocks NSW 2431",-30.911064001090555,153.043549929126
"262 Maitland Rd (Pacific Highway), Islington NSW 2296",51.5384287,-0.0999051
"1642 The Horsley Dr, Horsley Park NSW 2164",-33.84388475,150.8631951019209
"44 Hume Highway & Knight Street, Lansvale South NSW 2166",-33.9003985,150.9510782
"923 Ocean Drive, Bonny Hills NSW 2445",-31.584846136162774,152.83229750439028
"101 Mooney St, Telegraph Point NSW 2441",-31.3282875,152.7916674
"24-26 Hyde Street, Bellingen NSW 2454",-30.45282915,152.89934469788165
"2-4 Banyette Street (Cnr Station St), Bowral NSW 2576",-34.4816626,150.4177868
"223 Sheridan Street, Gundagai NSW 2722",-35.0624283179367,148.0998819406317
"54 Deniliquin Road, Tocumwal NSW 2714",-35.810750145147644,145.56154642852354
"1612 Golden Highway, SANDY HOLLOW NSW 2333",-32.3318,150.5679
"14 Thomas St, Wallsend NSW 2287",-32.9073039,151.66695915000003
"SHOP 8 24 LAGONDA DR, INGLEBURN NSW 2565",-33.9983333,150.8511111
"9297 MOUNT LINDESAY RD, LEGUME NSW 2476",-28.41219022562337,152.34575546627062
"2 CADONIA RD, TUGGERAWONG NSW 2259",-33.27960210585041,151.48462126769795
"144 Wentworth Street, Port Kembla NSW 2505",-34.48205969033255,150.90263902142814
"13 Midkin St, GARAH NSW 2405",-29.076056605664526,149.63499974762135
"242-246 BRIDGE ST, WEST TAMWORTH NSW 2340",-31.09538262027144,150.9117136931581
"1077 Botany Road, Mascot NSW 2020",-33.930737210884324,151.1944558177884
"7 Lake Albert Rd, Wagga Wagga, EAST WAGGA WAGGA NSW 2650",-35.120754188589785,147.3781781118359
"314 Princes Highway (Cnr Banksia Street), Banksia NSW 2216",-33.9448646,151.1402066
"100 Gipps Street, Bega NSW 2550",-36.676053493382035,149.84288015484435
"246 Beecroft & Carlingford Roads, Epping NSW 2121",49.1129518,7.3162243
"306 Empire Drive, Empire Bay NSW 2257",-33.5081164,151.3717495
"77 Old Lake Entrance Rd, Oak Flats NSW 2529",-34.5636037,150.8194112
"39 Doyle Street, Brewarrina NSW 2839",-29.959525884440293,146.85746086752337
"88 Queen Street, Berry NSW 2535",-34.775692199999995,150.69614571124907
"Corner Richmond Road & Dublin Street, Plumpton NSW 2761",50.92332315,-0.06525685126144444
"32 Princes Hwy, Arncliffe NSW 2205",-33.93684187920414,151.1496806988721
"15 GLASTONBURY AV, UNANDERRA NSW 2526",-34.45670329461917,150.85864566332796
"30-32 Mirrool Ave, YENDA NSW 2681",-34.25121723468989,146.19773761434067
"1-5 YATO RD, PRESTONS NSW 2170",-33.93867136711458,150.86969330107016
"69 Hoxton Park Road, Liverpool NSW 2170",-33.92887406603869,150.91753314529015
"50 Tweed Street, Brunswick Heads NSW 2483",-28.552934440309677,153.54610918701732
"66 Memorial Ave, BLACKWALL NSW 2256",-33.50400695797889,151.33017547008149
"40 Richardson Rd, RAYMOND TERRACE NSW 2324",-32.75450387802922,151.76021004869665
"13 CANTERBURY RD, CANTERBURY NSW 2193",-33.90777435,151.12516730100717
"49-51 Great Western Highway, Emu Plains NSW 2750",-33.74672433610486,150.67618742757148
"GARAGE 120 ROSS SMITH CR, SCULLIN ACT 2614",-35.2345341,149.0390718
"238 Cumberland Rd, Auburn NSW 2144",-33.84752197957692,151.02600429214164
"6 DOYLE RD, REVESBY NSW 2212",-33.947541024967215,151.02256808520522
"1 Woodland St, Riverstone NSW 2765",-33.6797545,150.8616695
"121 Castlereagh St, Coonamble NSW 2829",-30.950910049999997,148.38898484999999
"8597-8601 BRUXNER HWY, TABULAM NSW 2469",-28.8872866,152.5683651
"585 Bunnerong Rd, MATRAVILLE NSW 2036",-33.96339675,151.23207194058466
"504 Pacific Hwy (Cnr Maude St), Belmont NSW 2280",48.4095949,7.234863
"Corner Richardson Road and Nelson Bay, SALT ASH NSW 2318",-32.7944444,151.9222222
"100 CAMPBELLTOWN RD, MINTO NSW 2566",-34.039108066934894,150.82791337833942
"132-138 PACIFIC HWY, CHARLESTOWN NSW 2290",-32.97410515838985,151.692072879193
"55 Hope St, WARIALDA NSW 2402",-29.541791622746064,150.58030711196452
"77 MAYBE ST, BOMBALA NSW 2632",-36.90563561533552,149.245848019285
"5 Rosemeath Road, Bombala NSW 2632",-36.931189249461816,149.23727709989538
"No 6 Main Road, Boolaroo NSW 2284",-32.945781009344905,151.62337077286656
"494 Forest Rd, PENSHURST NSW 2222",-33.963024000000004,151.0809515
"109 Hoskins St, Temora NSW 2666",-34.44594471801531,147.53336035758113
"122 Hammond Avenue, Wagga Wagga NSW 2650",-35.12460884625092,147.4048820000629
"144 Parramatta Rd, GRANVILLE NSW 2142",-33.8290672,151.00830969999998
"522 Pacific Highway (Cnr Renwick Rd), Wyoming NSW 2250",43.1700264,-107.568534
"394 FIFTEENTH AV, AUSTRAL NSW 2179",-33.919772319995744,150.82190989536358
"Cnr Canberra Avenue & Flinders Way, Express Manuka ACT 2603",,
"855 Macquarie Drive, Valentine NSW 2280",-33.0079386131688,151.64308145003474
"290-294 THE ENTRANCE ROAD, LONG JETTY NSW 2261",-33.3683691848545,151.47564975954228
"TELARAH SERVICE STATION 17 SOUTH ST, TELARAH NSW 2320",-32.7234001,151.5398203
"4 BURRAWAY RD, BROCKLEHURST NSW 2830",-32.164414504856516,148.53122875338045
"31 Yenda Place, Yenda NSW 2680",-34.24978419999999,146.19572674300304
"89 EWING ST, MURWILLUMBAH NSW 2484",-28.32406297218687,153.40128677423687
"3 BLUEBERRY RD, MOREE NSW 2400",-29.4908717,149.8507939
"316 PENSHURST ST, NORTH WILLOUGHBY NSW 2068",-33.79831054297502,151.19813278876217
"Cnr. Glenmore Parkway & Main Street, Glenmore Park NSW 2745",-33.7887972,150.669496
"601-605 Great Western Highway, GREYSTANES NSW 2145",-33.80858264852331,150.93936231510946
"2 Perricoota Rd, Moama NSW 2731",-36.10618872991794,144.751109853972
"289 Cessnock Road, Abermain NSW 2326",-32.811121,151.43375765000002
"110 Gymea Bay Rd (Cnr 337-339 President Avenue), Gymea NSW 2227",-34.0341447,151.085653
"295-297 Merrylands Road (Corner Windsor Street), Merrylands NSW 2160",-33.8350765,150.9860379
"629 Pacific Highway, KEMPSEY SOUTH NSW 2440",-31.076886144066794,152.84289158186607
"66-68 Cessnock Road, Neath NSW 2326",-32.827079844312856,151.40814486629662
"515 Bunnerong Rd, MATRAVILLE NSW 2036",-33.959426699999995,151.23175617031222
"149 - 151 Parkes Street, Helensburgh NSW 2508",-34.19066046829743,150.98223339297482
"2742 Bells Line of Road, BILPIN NSW 2758",-33.50369801010414,150.54252099155065
"73 MAIN ST, ALSTONVILLE NSW 2477",-28.8427645919955,153.4431879391964
"1 KAMILAROI HWY, GUNNEDAH NSW 2380",-30.94880939521577,150.21159661784938
"51 Egerton St, SILVERWATER NSW 2128",-33.836286,151.04781
"360 Old Maitland Rd Cnr Pacific Hwy, Hexham NSW 2322",54.971478,-2.1017927
"307 LANG ST, KURRI KURRI NSW 2327",-32.8192023323765,151.4800390076615
"169 ANNANGROVE RD, ANNANGROVE NSW 2156",-33.6711383,150.9562795
"35 Melbourne St, EAST MAITLAND NSW 2323",-32.74754022784378,151.58018235014842
"Shop 9/3 Angophora Dr, Warabrook NSW 2304",-32.8870387,151.7098651
"86 Cartwright Avenue, MILLER NSW 2168",-33.91892216203477,150.8837391869767
"Mulga Creek Hotel Mitchell Hwy, BYROCK NSW 2831",-30.663405,146.4026766
"103 Smith ST, Kempsey NSW 2440",-31.0752934,152.8438883
"180 Manning St, KIAMA NSW 2533",-34.67387510797919,150.8548038243264
"3 York Street, Marrar NSW 2652",-34.823859725814586,147.3500375451187
"104 George Gibson Drive, COOPERNOOK NSW 2426",-31.824713801463627,152.61479514628013
"11 Grenfell Road, Cowra NSW 2794",-33.83400367126524,148.68572952685446
"108 ROOTY HILL RD SOUTH, ROOTY HILL NSW 2766",-33.774542262822294,150.8461183209416
"1004 Botany Rd., Mascot NSW 2020",-33.930737210884324,151.1944558177884
"22-36 Parkes Road, FORBES NSW 2871",-33.3706455,148.0178656
"246 Princes Hwy, Bomaderry NSW 2541",-34.838356,150.59584510420638
"2900 Remeberance Drive, TAHMOOR NSW 2573",-34.2253646,150.5907489
"2 Argyle Street, Mullumbimby NSW 2482",-28.555788523285322,153.51205486134396
"30 ST GEORGE ST, MUNGINDI NSW 2406",-28.976996109645906,148.9911777197255
"181 The River Rd, REVESBY NSW 2212",-33.93866618893174,151.01867627948133
"133 BRIDGE ST, URALLA NSW 2358",-30.64162165461656,151.5003295714302
"12-14 Berowra Waters Rd, BEROWRA NSW 2081",-33.62339465,151.15054862924598
"545 Union Rd, NORTH ALBURY NSW 2640",-36.0512888,146.9212283
"115-115 Church Street, Gloucester NSW 2422",-32.00752844849721,151.95829404307275
"5232 NEW ENGLAND HWY, LLANGOTHLIN NSW 2365",-30.1287801,151.6848539
"359 Elizabeth Drive, Mount Pritchard NSW 2170",-33.903233599064215,150.89702242966013
"104 Great Western Highway & Bennett Road, Colyton NSW 2760",50.7405628,-3.0701242
"180 Reservoir Road, Arndell Park NSW 2148",-33.79591080407178,150.89732345318836
"275 MARIBYRNONG AV, KALEEN ACT 2617",-35.21998692512446,149.10129112048176
"70 WOODBURN ST, EVANS HEAD NSW 2473",-29.11894175,153.4315019787415
"44 Malbon Street, Bungendore NSW 2621",-35.256365200000005,149.4426189198819
"236 Condamine Street, MANLY VALE NSW 2093",-33.7851099,151.2673003
"14 OLD PACIFIC HWY, NEWRYBAR NSW 2479",-28.72075626185947,153.53033418830822
"2891 Reg Hailstone Way, Wyangala NSW 2808",-33.9485,148.9346
"351 Beardy Street, ARMIDALE NSW 2350",-30.510739044576617,151.65659345149186
"450 Great Western Hw, Faulconbridge NSW 2776",-33.7005603,150.535599
"148 MAYNE ST, MURRURUNDI NSW 2338",-31.757680887026492,150.82414267240034
"580-586 Parramatta Road, Croydon NSW 2132",-33.87333741916656,151.1264447448081
"1 Mclennan Street, ARMIDALE NSW 2350",-30.511378049999998,151.6481286
"2 Kew Road, Laurieton NSW 2443",-31.645810023934544,152.7955575484597
"51 Pacific Highway, OURIMBAH NSW 2258",-33.3601403,151.3694256585267
"42 Bulahdelah Way, Bulahdelah NSW 2423",-32.421713198563445,152.20076398575412
"86 Princes Highway, Nowra NSW 2541",-34.90404595,150.60276639941299
"11 Yamba Road, Yamba NSW 2464",-29.436835897620526,153.35026271177193
"8 MESSENGER AV, BOOROOMA NSW 2650",-35.07041975768617,147.36275376840936
"68 Jindabyne Rd, BERRIDALE NSW 2628",-36.36541255,148.8269426571698
"875 Richmond Rd, MARSDEN PARK NSW 2765",-33.7160988,150.8457462
"154-156 Prospect Hwy, Seven Hills NSW 2147",-33.77762255728178,150.9324497812954
"1 Richmond St, LAWRENCE NSW 2460",-29.4997783,153.1002922
"New England Highway, ARMIDALE NSW 2350",-30.551607629597715,151.59085430591392
"44 Cooper Street, Macksville NSW 2447",-30.707721731102843,152.9206984555488
"Cnr Dudley St & Punchbowl Rd, PUNCHBOWL NSW 2196",-33.928717,151.0522591
"11191 Princes Highway, BENANDARAH NSW 2536",-35.59683024161678,150.25459531378092
"198 Princes Hwy, SOUTH NOWRA NSW 2541",-34.91509245,150.60441750755743
"2072 Camden Valley Way, EDMONDSON PARK NSW 2174",-33.95048983839366,150.84333761182663
"48 Denman Street (entrance via Ken Tubman Drive), Maitland NSW 2320",-32.7316683,151.5511123
"238 Pacific Highway, Lindfield NSW 2070",-33.778914650000004,151.1689492492931
"81-83 Jerilderie Road, JERILDERIE NSW 2716",-35.29535053585347,145.87381880797483
"114 Tongarra Rd, Albion Park NSW 2527",-34.5711553,150.7699356
"Bencubbin Avenue, Coleambally NSW 2707",-34.80211557613063,145.89490692406065
"190 Peel Street, Tamworth NSW 2340",-31.0978285,150.9363406
"183 The Horsley Drive, FAIRFIELD EAST NSW 2165",-33.8736314,150.9647994
"10 Kendal Street, Cowra NSW 2794",-33.83374415,148.68723838022706
"948-950 Canterbury Rd, Roselands NSW 2196",-33.9282723,151.0781346832881
"2a Francis Hollis Dr, TATHRA NSW 2550",-36.724303491982326,149.97496472236043
"360 Flushcombe Road, Prospect NSW 2148",-33.797472856238805,150.904212007964
"646 Richmond Rd, Glendenning NSW 2761",-33.739306700515925,150.85941979571473
"2 Brunker Rd, Broadmeadow NSW 2292",-32.92538482378901,151.7364295393371
"12-14 Bolwarra Rd, PORT MACQUARIE NSW 2444",-31.449995035700752,152.88627834394757
"624 Young St, ALBURY NSW 2640",-36.072631099999995,146.9258528
"2-12 Chinderah Bay Drive, Chinderah NSW 2478",-28.24230564561574,153.54430331059245
"11 Grantham Street, Boggabri NSW 2382",-30.711159984173893,150.0451720452281
"924 Victoria Rd, WEST RYDE NSW 2114",-33.81089125,151.09328534077147
"87 Llewellyn St (Cnr Glebe Rd), Merewether NSW 2291",-32.9475708,151.7454773
"41 Federal Hwy, Lyneham ACT 2602",-35.24069880021185,149.13673815014957
"22 STATION ST, GULGONG NSW 2852",-32.35713264523109,149.53593987684664
"68-89 Ozone Street, Chinderah NSW 2487",-28.244419706723374,153.5575328921311
"113 PARRY ST, NEWCASTLE WEST NSW 2302",-32.92511296868335,151.75568971472595
"1 MAITLAND RD, SINGLETON NSW 2330",-32.5738781777657,151.1830103106005
"456, Metford Road, Metford NEW SOUTH WALES 2323",-32.759104544946844,151.60312696362226
"1600 Princes Hwy, TERMEIL NSW 2539",-35.51268156421254,150.3226895508483
"64 Orange Grove Rd, WARWICK FARM NSW 2170",-33.90764794700774,150.91866814614963
"150 HAWKINS ST, HOWLONG NSW 2643",-35.98030951861215,146.63159939759544
"30-34 PRINCES HWY, FAIRY MEADOW NSW 2519",-34.39529324365088,150.8926888484403
"93a Wallsend St, KAHIBAH NSW 2290",-32.96499378345343,151.70976650869528
"86 Pittwater Rd, MANLY NSW 2095",-33.7931243,151.28585699694452
"2-4 Kippax St, Greystanes NSW 2145",-33.827087460725,150.93842435619175
"20 Boomerang Street, Rankins Springs NSW 2669",-33.84120536413191,146.26271493621064
"115 Station Street, Quirindi NSW 2343",-31.503224220640067,150.68079240858444
"5 Kanandah Road, Broken Hill NSW 2880",-31.995081551227774,141.4342068399013
"Cnr Castlereagh & Coreen Ave, Penrith NSW 2750",54.6639133,-2.7522047
"3 Williamtown Dr, Williamtown NSW 2318",-32.8115722,151.84328
"1721 Pittwater Road, Mona Vale NSW 2103",-33.680463950000004,151.30248584280787
"5 MANILLA RD, ATTUNGA NSW 2345",-30.9289828,150.8458157
"154 Belgrave Street, Kempsey NSW 2440",-31.079520175713725,152.83434472159402
"81 Aberdare Rd, ABERDARE NSW 2325",-32.8433073746959,151.37430339369016
"472 CABRAMATTA RD, MOUNT PRITCHARD NSW 2170",-33.8971581,150.91237732979835
"5 Tweed St, BRUNSWICK HEADS NSW 2483",-28.5381959,153.5486736
"210 Ashmont Avenue, Ashmont NSW 2650",-35.123797490067396,147.33446619308077
"503 COOLAC RD, COOLAC NSW 2727",-34.93916013102157,148.1678809911735
"3 Bells Line Of Road, NORTH RICHMOND NSW 2754",-33.58150570131913,150.72129798325784
"51-55 River Street, Maclean NSW 2463",-29.459648329064425,153.19741851273275
"146 William Street, BATHURST NSW 2795",-33.42341168626405,149.5730163055587
"47 Princes Highway, Fairy Meadow NSW 2519",-34.40215039211664,150.89144303935723
"1042 Great Western Highway, Minchinbury NSW 2770",-33.7886745,150.8533685
160 South Terrace Bankstown NSW 2200,-33.91920886309352,151.0454544305215
"120-138 Birrell Street, Bondi Junction NSW 2022",-33.896534149999994,151.25433195
"177 Maitland Street, Narrabri NSW 2390",-30.319293215697282,149.77970267572672
CNR JOHNSON & DOWLING STREET Forbes NSW 2871,-33.378772049999995,147.95343881310146
"2 Southqueen Pl, KARABAR NSW 2620",-35.3759426,149.2328718
"132 Allambie road, Allambie Heights NSW 2100",-33.765075,151.24967876422747
"202 Bong Bong Street, Bowral NSW 2576",-34.47610125,150.41884953254217
"133-139 Pittwater Rd, MANLY NSW 2095",-33.79352978417989,151.28550337780726
"32 Joseph St, LIDCOMBE NSW 2141",-33.8648971,151.0432666
"92 Queen Street, Barmedman NSW 2668",-34.14503550662923,147.38671260803025
"1185 Bruxner Hwy, WOLLONGBAR NSW 2477",-28.821217109188023,153.41112446848712
"86 Manning St, TUNCURRY NSW 2428",-32.17587394857661,152.4997690593241
"2 LONSDALE ST, BRADDON ACT 2612",-35.2738949,149.13267665
"15 OCEAN DR, PORT MACQUARIE NSW 2444",-31.435736650000003,152.89990387771456
"22 East Street, Murrumbateman NSW 2582",-34.969732050000005,149.0297802622955
"229 Wentworth Avenue, Pendle Hill NSW 2145",-33.8002199,150.955961
"242 Parramatta Road, Homebush NSW 2140",-33.8617267,151.0763447
"60 PRINCES HWY, NAROOMA NSW 2546",-36.21614425,150.1262333771993
"56 Leabons Lane (Corner Blacktown Road), Blacktown East NSW 2148",-33.7595934,150.9326869
"126 Windsor Rd, MCGRATHS HILL NSW 2756",-33.6142779386572,150.8329403470337
"195 Main Rd, HEDDON GRETA NSW 2321",-32.809799210178596,151.49909233625382
"71 Blaxland Road, Campbelltown NSW 2560",-34.0615769,150.8097608
"505 Cowpasture Rd, LEN WATERS ESTATE NSW 2171",-33.909720509589725,150.85478518357698
"65 BOWRAL RD, MITTAGONG NSW 2575",-34.45117869022161,150.44732753305874
"955 Pacific Highway (Cnr Yallambee Rd), Berowra NSW 2081",-33.6237183,151.1515392
"965-969 Pacific Highway (Corner Waratah Road), Berowra NSW 2081",-33.6237183,151.1515392
"20 Old Newell Hwy, Narrabri NSW 2390",-30.34721294143028,149.76160731789872
"172 MELROSE DR, PHILLIP ACT 2606",-35.35681566968905,149.08774529349563
"1 DANDALOO ST, NARROMINE NSW 2821",-32.2327652,148.2397055
"370 Griffith Rd, Lavington NSW 2641",-36.042790348116064,146.9453563714767
"1 The Strand, Dee Why NSW 2099",-33.7557167,151.2959912
"224 Old Hume Highway, Mittagong NSW 2575",-34.4474683500976,150.4363119337125
"Cnr Queen & Parliament Streets, Corowa NSW 2646",-35.9995747,146.3906094
"124 Old Bar Road, OLD BAR NSW 2430",-31.965452599287897,152.5509704535785
"Newell Highway, Tomingley NSW 2869",-32.41835050833537,148.3876036182725
"160-168 Dowling St, Dungog NSW 2420",-32.39782836293245,151.75909127599073
"19 Davies Road, Padstow NSW 2211",-33.9529271,151.03819370000002
"1 Bay Street, Port Macquarie NSW 2444",-31.4276807,152.89577874453403
"506 MERRYLANDS RD, MERRYLANDS WEST NSW 2160",-33.83312229805854,150.9733378002498
"6 ILFORD RD, KANDOS NSW 2848",-32.8553939740274,149.96990425827178
"29 Banna Avenue, Griffith NSW 2680",-34.28697595936215,146.03801312260424
"531 PRINCES HWY, TEMPE NSW 2044",-33.92164266398059,151.1643844020942
"200 Paterson Road, BOLWARRA HEIGHTS NSW 2320",-32.70272070747826,151.5825739179167
"246 Goonoo Goonoo Road, SOUTH TAMWORTH NSW 2340",-31.111785224186235,150.92335003447727
"18 Colin Street, CARINDA NSW 2831",-30.46339928718285,147.6910552798209
"487 SAPPHIRE COAST DR, BOURNDA NSW 2548",-36.85941915096645,149.9150214956289
"134-138 New England Highway, RUTHERFORD NSW 2320",-32.71911176564035,151.53577762655507
"745 Main Rd, EDGEWORTH NSW 2285",-32.92502799605333,151.6270613674504
"387 New England Hwy, RUTHERFORD NSW 2320",-32.720600688209935,151.53806104413758
"Merrylands Road & Braeside St, Greystanes NSW 2145",-33.8262187,150.9414378
"16 Princes Highway, FAIRY MEADOW NSW 2519",-34.3875962,150.8944269
"5 Bullecourt Avenue, Milperra NSW 2214",-33.93745275,150.9888624654779
"20 Parkersfarm Place, Casula NSW 2170",-33.9522222,150.8952778
"7 NORTHWOOD RD, LONGUEVILLE NSW 2066",-33.8245121,151.17256998655543
"221-229 Elizabeth St, Croydon NSW 2132",-33.88336630414882,151.1186015757826
"218 KING GEORGES RD, ROSELANDS NSW 2196",-33.93310735,151.07352337929734
"Cnr Pacific Highway & Jersey Street, Asquith NSW 2077",-33.6884076,151.1078178
"243 Pennant Hills Road, Carlingford NSW 2118",-33.7828992,151.0457535
"104 Rouse St, TENTERFIELD NSW 2372",-29.049753592818437,152.01983896131023
"72 Harold St, Macquarie Fields NSW 2564",-33.998391866040336,150.88550245856507
"65 Garfield Road West & Richmond Road, Marsden Park NSW 2765",-33.6956552,150.8147975
"69 Fishery Point Road, Mirrabooka NSW 2264",-33.10707742450787,151.55077607262655
"226 NEWBRIDGE RD, MOOREBANK NSW 2170",-33.92837501432072,150.93156014167957
"2111 GEORGE BASS DR, TOMAKIN NSW 2537",-35.82330152005432,150.18238100823183
"11 Kirribilli Avenue, Coomba Park NSW 2428",-32.236670957959674,152.4738492972067
"49 BRIERLY ST, WESTON ACT 2611",-35.340268699999996,149.05187943418662
"88 Clovelly Rd, RANDWICK NSW 2031",-33.91227364745218,151.259287122861
"51-59 Main Street, Mittagong NSW 2575",-34.450897573235046,150.44614851296905
"SHELL SERVICE STATION 11553 NEWELL HWY, NARRABRI NSW 2390",-30.3278407,149.5571541832252
"158 MOUNT DARRAGH RD, SOUTH PAMBULA NSW 2549",-36.94540290504184,149.83159378190533
"VILLAGE STORE 54 BAYLIS ST, BETHUNGRA NSW 2590",-34.7618007,147.8565234
"176 Warringah Rd, BEACON HILL NSW 2100",-33.7538434,151.2603475
"36 Henderson Road, Alexandria NSW 2015",-33.897466449999996,151.19732432046374
"Cnr McBryde Cres & Denigan Street, Wanniassa ACT 2903",-35.3976642,149.0908045
"444 West Botany Street, ROCKDALE NSW 2216",-33.95989175880313,151.1453813888181
"63 Commercial St, Walla Walla NSW 2659",-35.7651401,146.9009668
"Cnr Brook & Sowerby Streets, Muswellbrook NSW 2333",-32.4881159,150.51640804866668
"163-165 PARRAMATTA RD, HABERFIELD NSW 2045",-33.886672002849416,151.14050983613785
"99 Railway Street (Corner Frederick Street), Rockdale NSW 2216",33.6430283,-84.0322064
"37 Shellharbour Rd, LAKE ILLAWARRA NSW 2528",-34.542099595298005,150.86399203585717
"33 VILLAGE CCT, GREGORY HILLS NSW 2557",-34.02674935,150.77816631588846
"2 Naylor Street, Cudal NSW 2865",-33.283830699999996,148.7428888
"100 Bonnyrigg Avenue, Bonnyrigg NSW 2177",-33.886533,150.88882083697956
"1 St Georges Road, ST GEORGES BASIN NSW 2540",-35.09023902322187,150.5941253943735
"662 Windsor Rd (cnr Meriville Rd), Kellyville NSW 2155",35.9436968,-96.2136136
"406 Macquarie Street, LIVERPOOL NSW 2170",-33.925794879805295,150.92180534425222
"170 FITZMAURICE ST, WAGGA WAGGA NSW 2650",-35.100760750000006,147.3673346
"39-41 PRINCES HWY, COBARGO NSW 2550",-36.372250636520214,149.95162181905064
"Balo St & Gwydir St, Moree NSW 2400",-29.459572755913026,149.84158574040083
"1509-1511 Pittwater Road, NORTH NARRABEEN NSW 2101",-33.7117013,151.29681585
"664 SNOWY MOUNTAINS HWY, DAIRYMANS PLAINS NSW 2630",-36.245058252813024,149.05588686544755
"91 Bent St (Cnr Spring St), Grafton NSW 2460",43.9702453,-71.8742626
"273 Old Hume Highway, Camden NSW 2570",-34.063710900480466,150.69301636793185
"Cnr Brooks St & New England Highway, Rutherford NSW 2320",35.3994626,-81.9023191
"74 Princess Highway, ULLADULLA NSW 2539",-35.3621503,150.4751713
"2453 GRABINE RD, BIGGA NSW 2583",-34.057124996370405,149.09727546355208
"22 Stanmore Street, Enmore NSW 2042",-33.8996968,151.170986
"25 Louee Street, Rylstone NSW 2849",-32.80133819479082,149.97023008970845
"145-147 HOSKINS ST, TEMORA NSW 2666",-34.44594471801531,147.53336035758113
"2 Ipswich Street, Fyshwick ACT 2609",-35.32568845852959,149.16544728259973
"12 REIFF ST, LAVINGTON NSW 2641",-36.038695859860496,146.96665029918395
"117 Seven Hills Rd, BAULKHAM HILLS NSW 2153",-33.7576928,150.95603160000002
"342 Georges River Road & Burwood Road, Croydon Park NSW 2133",-33.8975316,151.1024641
"1106 Great Western Hwy., Lithgow NSW 2790",-33.43852721635969,150.11357212019664
"31-35 Unwins Bridge, Sydenham NSW 2044",-33.91451898327118,151.1692294225223
"250 Newcastle Road, East Maitland NSW 2323",-32.7575206,151.5854642
"80-84 Campbell Street, MORUYA NSW 2537",-35.91130481383097,150.0742322480424
"North Parade (Mt Druitt Market Place), Mount Druitt NSW 2770",-33.7705556,150.8205556
"7 148 Sunnyholt Road, BLACKTOWN NSW 2148",-33.768095704960295,150.9123571118308
"Frenchmans Rd & Clovelly Rd, Randwick NSW 2031",-33.9079869,151.247475
"862 Hume Highway, Bass Hill NSW 2197",-33.90382182829099,151.0014318006579
"223 SANGER ST, COROWA NSW 2646",-36.0009255839936,146.39127506309825
"23-27 HOOKE ST, DUNGOG NSW 2420",-32.399113224833826,151.75339003857763
"27-29 Amy Steet, Regents Park NSW 2143",41.8032167,-87.5848218808377
"141-151 Hume Highway Cnr Chadderton St, LANSVALE NSW 2166",-33.9003985,150.9510782
"612-626 Willoughby Rd Cnr Penkivil St, WILLOUGHBY NSW 2068",-33.80159955,151.1836478125075
"369C Bexley Road, Bexley NSW 2207",-33.9458373,151.12298528238648
"367 The Kingsway (Corner Willarong Road), Caringbah NSW 2229",-34.0354477,151.1248018
"42 COOLAMON ST, ARIAH PARK NSW 2665",-34.342436929431514,147.22209935982508
"39 Pangee St, NYNGAN NSW 2825",-31.563859411705337,147.19767369257164
"700 Victoria Rd, ERMINGTON NSW 2115",-33.808596,151.066013
"90-94 Lakeside Dr, KANAHOOKA NSW 2530",-34.50021811455649,150.8180306325877
"56 Yass Street, GUNNING NSW 2581",-34.78512671052274,149.26176922982972
"595 OCEAN DR, NORTH HAVEN NSW 2443",-31.635214957518464,152.82119040835468
"3964 Wallanbah Road, NABIAC NSW 2312",-32.097684689723415,152.37196893525433
"8 Kosciusko Road, Jindabyne NSW 2627",-36.4170899,148.61996
"709 Cabramatta Road, Bonnyrigg NSW 2177",-33.89344197900483,150.8929689388704
"608 Fishery Point Rd, Morisset NSW 2264",-33.10912987791365,151.50144990865672
"317A Pacific Hwy, Highfields NSW 2289",-32.955301782993594,151.70808130792244
"5558 Old Northern Road, WISEMANS FERRY NSW 2775",-33.3849376,150.9860427
"13 Railway Lane, Cowra NSW 2646",-33.835853486950036,148.69228940186352
"Brooks St (Glenquarie Shopping Centre), Macquarie Fields NSW 2564",-33.9904477,150.8849303
"225 Argyle St, MOSS VALE NSW 2577",-34.546085649999995,150.37477963106377
"21 Opal St, Lightning Ridge NSW 2834",-29.431360284037492,147.98103494053316
"87-91 ROBERTS RD, GREENACRE NSW 2190",-33.892658501109835,151.06674148890502
"21 BRIDGE ST, TUMBARUMBA NSW 2653",-35.777544262536914,148.01363588867812
"600 Liverpool Rd, STRATHFIELD SOUTH NSW 2136",-33.887018624517566,151.09215198345677
"132 MANNING RIVER DR, TAREE SOUTH NSW 2430",-31.89476600929526,152.50276250823111
"16 Breese Parade, Forster NSW 2428",-32.1999504,152.5223611
"124 Hoxton Park Rd, LURNEA NSW 2170",-33.92679917093951,150.90183155924512
"17 Sandwych St, WENTWORTH NSW 2648",-34.106924747366286,141.91652568242688
"99 Tweed Coast Rd, Hastings Point NSW 2489",-28.3691766,153.5726546
"129 Piccadilly St, Riverstone NSW 2765",-33.671016610737595,150.8623414476086
"36 Mulgoa Road, Regentville NSW 2745",-33.77392526111155,150.66843512594417
"10 Langford Drive, MARSDEN PARK NSW 2765",-33.723055849999994,150.84029731185885
"254-256 Shellharbour Rd, Barrack Heights NSW 2528",-34.567605431670195,150.86064277339187
"300 New England Highway, Rutherford NSW 2320",-32.714774649999995,151.52528609655093
"596 Princes Highway, Kirrawee NSW 2232",-34.032182604447655,151.07364479423396
"Curran Drive Cnr O'Hanlon Pl, Nicholls ACT 2913",31.5174219,-82.6348602
"44 Dalley Street, Mullumbimby NSW 2482",-28.5516975,153.5001323
"365 GARFIELD RD WEST, MARSDEN PARK NSW 2765",-33.69316511050435,150.83340408408296
"995 Waterfall Way, Bellingen NSW 2454",-30.4596963,152.9163716037838
"12 CORDINI ST, TUCABIA NSW 2462",-29.667704,153.108171
"2/ 997 Pemberton St, WEST ALBURY NSW 2640",-36.073489763820966,146.89228354630242
"31 Princess Highway, ALBION PARK RAIL NSW 2527",-34.5625775,150.7978168
"41 GURLEY ST, GURLEY NSW 2398",-29.735258280040338,149.7997656724117
"Cnr Pacific Highway & Tall Timbers Road, Lake Munmorah NSW 2259",-33.2145467,151.56972133316026
"49A Lachlan Street, South Kempsey NSW 2440",-31.0881555534504,152.8387083245651
"148 Bridge Street (Cnr Hill St), Muswellbrook NSW 2333",-32.4881159,150.51640804866668
"38 Kent Rd, NORTH RYDE NSW 2113",-33.7915903,151.1160611
"128 HASTINGS RIVER DR, PORT MACQUARIE NSW 2444",-31.430923356731576,152.88717593073093
"72 Stranraer Drive, St Andrews NSW 2566",-34.0289569,150.82793920099368
"211-213 Anzac Parade, KENSINGTON NSW 2033",-33.915306219631134,151.22549651053188
"Cnr Milperra & River Rds, Revesby NSW 2212",53.1340774,-0.0597203
"7 Sturt Highway, DARLINGTON POINT NSW 2706",-34.627909201439095,146.07966834450852
"535 ARGENT ST, BROKEN HILL NSW 2880",-31.94938596000922,141.48029556343522
"Lot 4, Bomen Road, Wagga Wagga NSW 2650",-35.071720397607926,147.4040816153608
"127 VICTORIA RD, ROZELLE NSW 2039",-33.86403267409539,151.17040641150558
"1190 Burragorang Rd, The Oaks NSW 2570",-34.0746889,150.5376475
"47 Nolan Street (Corner Northcliffe Road), Berkeley NSW 2506",37.8708393,-122.272863
"5172 Snowy Mtns hwy, Adaminaby NSW 2629",-35.9955556,148.7747222
"119 Binnia St, COOLAH NSW 2843",-31.82831345150432,149.71506663470146
"1 MYALL QUAYS BVD, TEA GARDENS NSW 2324",-32.6622727,152.155692
"180 EDWARD ST, WAGGA WAGGA NSW 2650",-35.11863692136161,147.36732675715888
"774 Parramatta Road, Lewisham NSW 2049",-33.890122773860305,151.14779290655605
"1-5 Forbes Road, PARKES NSW 2870",-33.14092599999999,148.1706069
"50 ALLIANCE AV, MORISSET NSW 2264",-33.11641845,151.47782487335868
"70 Princess Highway, LAKE TABOURIE NSW 2539",-35.4388889,150.4041667
"118 New England Hwy, Rutherford NSW 2320",-32.720600688209935,151.53806104413758
"38 Abbott Rd, SEVEN HILLS NSW 2147",-33.76583405,150.9572076
"15-17 O'Keefe Drive, COFFS HARBOUR NSW 2450",-30.316158474455634,153.0972308074531
"152 Moorefields Road, Kingsgrove NSW 2208",-33.9303291383671,151.09835799747543
"56-60 Bathurst Road, Orange NSW 2800",-33.29563115779098,149.11644722623737
"65 THARWA RD, QUEANBEYAN WEST NSW 2620",-35.36234687474291,149.21679726550505
"34 WELLINGTON ST, BARADINE NSW 2396",-30.949702950000002,149.0684088
"165 Pacific Highway, Coffs Central NSW 2450",-30.297092999999997,153.11598264706097
"1355 Princess Hwy (Cnr Oliver Rd), Heathcote NSW 2233",40.393854000000005,-74.5717242965823
"42-46 KING ST, WARRAWONG NSW 2502",-34.49511051090557,150.88883408751775
"41 Minmi Rd, WALLSEND NSW 2287",-32.889700000000005,151.66192624666843
"2 - 4 Peterborough Avenue, Lake Illawarra NSW 2528",-34.5433082,150.86334290000002
"60 Windsor Parade, DUBBO NSW 2830",-32.2546377,148.63173207946045
"8589 NEW ENGLAND HWY, WILLOW TREE NSW 2339",-31.674030619020836,150.7476851047904
"652 GOOREENGI RD, NORTH ARM COVE NSW 2324",-32.63099196481805,152.04987016921444
"147-149 Bridge St, Tamworth West NSW 2340",-31.09538262027144,150.9117136931581
"22 CARRI ST, SOUTH KEMPSEY NSW 2440",-31.0915992,152.83692582736373
"128 Pacific Hwy, Charlestown NSW 2290",-32.97410515838985,151.692072879193
"44 Foster St, Lake Cargelligo NSW 2672",-33.29870071344768,146.3717711519486
"29 Railway Parade, Henty NSW 2658",-35.519037,147.036471
"54c Fairfield Road, GUILDFORD WEST NSW 2161",-33.84528728929811,150.96256734625888
"10 MILPERRA RD, REVESBY NSW 2212",-33.93600739071672,151.01110425802287
"1-3 Penrhyn Rd, BANKSMEADOW NSW 2019",-33.963601969627774,151.21475946897678
"9 Davies Rd, Padstow NSW 2211",-33.9473243,151.03696974685738
"9, Melrose Road, Albert NSW 2873",50.0018022,2.6509223
"132 Old Bathurst Road, Emu Plains NSW 2750",-33.742517488321724,150.66359373546103
"189 Epping Rd & Culloden Rd, Marsfield NSW 2122",-33.7777956,151.1032015
"184-188 Hannell Street, Wickham NSW 2293",-32.923216284121516,151.76055446737703
"4 Martin St, WILCANNIA NSW 2836",-31.561450089277447,143.3744239891344
"92 Jenkins Street, NUNDLE NSW 2340",-31.457755517628673,151.12911320562287
"200-202 Pennant Hills Road, THORNLEIGH NSW 2120",-33.72640921108476,151.08416817829988
"70 76 Breeza Street, Carroll NSW 2340",-30.986706724061282,150.444872141922
"340 Pine Creek Way, Bonville NSW 2450",-30.372279894452372,153.03548629382905
"191 CESSNOCK RD, WESTON NSW 2326",-32.812476500080344,151.44183302176916
"5 KING ST, GOOLOOGONG NSW 2805",-33.615618451468364,148.4353040208447
"797 Pennant Hills Road, CARLINGFORD NSW 2118",-33.7757819,151.0516532
"62-68 Clinton Street, GOULBURN NSW 2580",-34.75248879741018,149.70605865942045
"2-4 Church Street, Port Kembla NSW 2505",-34.48496514660182,150.90383011895025
"215 Balo Street, Moree NSW 2400",-29.46175079808492,149.8416020317442
"370 Railway Parade, Carlton NSW 2216",-33.96821205074511,151.12618265552996
"7-9 Pacific Hwy, BROADWATER NSW 2472",46.3252827,-111.4969303
"10 Industrial Drive corner of Zylpha Drive, South Kempsey NSW 2440",-31.1201,152.8492
"56 Victoria Street, Taree NSW 2430",-31.907077350094415,152.47121427336617
"103 SYDENHAM RD, MARRICKVILLE NSW 2204",-33.91102379830109,151.16402790467845
"48-50 Hanwood Road, Hanwood NSW 2680",-34.3291548629654,146.04131512484625
"3-5 Tura Beach Drive (Cnr Sapphire Coast Drive), Tura Beach NSW 2548",-36.8628056,149.9244736
"110-112 Princes Hwy, UNANDERRA NSW 2526",-34.44883412882838,150.85025683994854
"Pacific Hwy (Park Beach Plaza), Coffs Harbour NSW 2450",-30.2985996,153.1094116
"58-60 Hare Street, Casino NSW 2470",-28.87051506492977,153.03858119809976
"43 Booralie Rd, TERREY HILLS NSW 2084",-33.6801029,151.2250547
"172 Hector St, CHESTER HILL NSW 2162",-33.884615249999996,151.00661715
"375 Cressy St, Deniliquin NSW 2710",-35.53128238616385,144.96512670879957
"203 BURNS BAY RD, LANE COVE NSW 2066",-33.814532650000004,151.15439850096482
"54 Ballina Rd, LISMORE NSW 2480",-28.814308355990217,153.27971622811884
"67 WOODHOUSE DR, AMBARVALE NSW 2560",-34.080938499999995,150.80353885
"390 Princes Highway, Blakehurst NSW 2221",-33.9903586,151.11362842950973
"Lot 6 Star Court, CAMBRIDGE PARK NSW 2747",-33.7501365,150.7269025
"256 Kissing Point Rd, DUNDAS NSW 2117",-33.798826,151.054578
"780 Main Rd, EDGEWORTH NSW 2285",-32.924312,151.61545512697325
"330 Miller St, CAMMERAY NSW 2062",-33.82868645,151.2088307297541
"66 Kelly Street, Scone NSW 2337",-32.05407887325724,150.867652182072
"1 Bridgman Road, DUNOLLY NSW 2330",-32.55839330482775,151.1670909212259
"95 NORTHCOTE ST, KURRI KURRI NSW 2327",-32.80773734602362,151.49009424866895
"242 Lawrence Hargrave Drive, Thirroul NSW 2515",-34.31483781194867,150.92335997536867
"52-54 Shoalhaven Heads Rd, Shoalhaven Heads NSW 2535",-34.84853897389181,150.73834036316103
"22 Station St, Gulgong NSW 2852",-32.35713264523109,149.53593987684664
"29 Moama Street, Mathoura NSW 2710",-35.81394558721279,144.9035073896115
"1a Tumbi Creek Road, BERKELEY VALE NSW 2261",-33.36183148009793,151.444446788762
"113 AUDLEY ST, NARRANDERA NSW 2700",-34.74871470083605,146.5572549887513
"1 Campbelltown Road, Glenfield NSW 2167",-33.9631579585682,150.88050621355484
"340 North Rocks Road, North Rocks NSW 2151",-33.7689514,151.0305952
"353-355 Edward St, Wagga Wagga NSW 2650",-35.11863692136161,147.36732675715888
"86 KENTHURST RD, KENTHURST NSW 2156",-33.66947193540504,151.00703074326168
"186 WOODPARK RD, SMITHFIELD NSW 2164",-33.83650991406738,150.93376322391285
"793 TOMAGO RD, TOMAGO NSW 2322",-32.8200238,151.75284215
"127 North Street, Albury NSW 2640",-36.06692679542483,146.91662918773298
"21 Elliott Road, South Lismore NSW 2480",-28.812610184680953,153.26675081700392
"MOBIL OUTLET 15 BARRIER ST, FYSHWICK ACT 2609",-35.3216575,149.1708774
"Cnr Russell & Terry Street, Albion Park NSW 2527",-34.5708425,150.7752326
"2 Chinner Cres, Melba ACT 2615",-35.20882530089107,149.0497288446234
"20 MORT ST, BRADDON ACT 2612",-35.27437533345104,149.13128523181496
"294 PRINCES HWY, CARSS PARK NSW 2221",-33.985696329318095,151.11294399129267
"80 Main Road, Cliftleigh NSW 2321",-32.780427238726666,151.5244418404305
"Lot 3-4 Parramatta Road & Harbord Street, Granville East NSW 2142",44.0170079,-72.7595538
"60 Johnson Street, Forbes NSW 2871",-33.37864245,148.00613964133493
"422 Newcastle Road, NORTH LAMBTON NSW 2299",-32.9038889,151.7038889
"494 Pacific Hwy, Killara NSW 2071",-33.7692992005374,151.15995748616945
"199 Great Western Highway, Katoomba NSW 2780",-33.711585883889434,150.31340872970878
"44-48 Byron St, Lennox Head NSW 2478",-28.7917767,153.5882704
"2 Bunga St, BERMAGUI NSW 2546",-36.42977610608543,150.0759170431516
"10 Limestone Drive, Jerrabomberra NSW 2619",-35.37985225,149.2007195
"56 TUDOR ST, HAMILTON NSW 2303",-32.92391983762046,151.74641769404693
"Lot 2 Lake Entrance Road, Oak Flats NSW 2529",-34.5668543750497,150.82293279805714
"73 ALLANDALE RD, CESSNOCK NSW 2325",-32.8313734,151.35581285
"309 Byron St, Inverell NSW 2360",-29.76982951044798,151.1171529290204
"100 Pacific Highway, Tuggerah NSW 2259",-33.305771449999995,151.4198023951231
"68 KELLY ST, AUSTRAL NSW 2179",-33.93857244416064,150.79402034196428
"795 Luxford Road  (Corner Buckwell Drive), Hassall Grove NSW 2761",-33.7316667,150.8344444
"610 Forest Road, Bexley NSW 2207",-33.95282796349998,151.1218117817768
"57 PANGEE ST, NYNGAN NSW 2825",-31.563859411705337,147.19767369257164
"5-11 Bvd, MORISSET NSW 2264",-33.1090883,151.4879121
"4 Wollombi St, BROKE NSW 2330",-32.750579,151.10356
"6b 1-10 Amy Close, WYONG NSW 2259",-33.2825132,151.4256691
"76 Yapunyah St, Barellan NSW 2665",-34.285083560888495,146.57521201675
"54 MORT ST, BRADDON ACT 2612",-35.27437533345104,149.13128523181496
"599 Willoughby Rd, WILLOUGHBY NSW 2068",-33.80886167830997,151.1994642653361
"360 Armidale Rd, EAST TAMWORTH NSW 2340",-31.100173090359295,150.94273172208418
"UNIT 3 1 BEINDA ST, BOMADERRY NSW 2541",-34.8538588,150.6098027
"10876 Princes Hwy, Benandarah NSW 2536",-35.59683024161678,150.25459531378092
"4352 NEW ENGLAND HWY, GUYRA NSW 2365",-30.281969452620686,151.68743860894824
"102 Wollombi Rd, CESSNOCK NSW 2325",-32.842078934052786,151.33708255027824
"364-366 Eastern Valley Way, Chatswood East NSW 2067",53.9486489,-0.8916195
"313 Great Western Hwy, SOUTH WENTWORTHVILLE NSW 2145",-33.816048931003735,150.97204916201127
"250 HENRY LAWSON DR, GEORGES HALL NSW 2198",-33.91164046372928,150.9757859575338
"189 South Creek Road, CROMER NSW 2099",-33.73614,151.28034944638296
"65 Marshall Street, Cobar NSW 2835",-31.4974635,145.8360868
"129 RIVER ST, WOODBURN NSW 2472",-29.07192205910051,153.34048247733793
"Sturt Hwy, BALRANALD NSW 2715",-34.588460834166035,143.20588812921028
"7 Raby Rd, LEPPINGTON NSW 2179",-33.99770439592597,150.79101347041612
"28 PERRY ST, MENINDEE NSW 2879",-32.39459617739368,142.42048942815947
"188-190 Pennant Hills Rd, Thornleigh NSW 2120",-33.725022,151.085057
"48-50 Aiken Road, West Pennant Hills NSW 2125",-33.754158,151.040597
"52 LACHLAN ST, SOUTH KEMPSEY NSW 2440",-31.0935753,152.8369862
"Lot 51 Bourke St (newell Hwy) Cnr River St, DUBBO NORTH NSW 2830",-32.233402999999996,148.6034639
"Cohen St &, Josephson St,, Belconnen ACT 2617",-35.23963825,149.0601550380749
"769 The Horsley Dr, SMITHFIELD NSW 2164",-33.85050779128803,150.9198634629685
"15 Thomas St (Cnr Brook St), Wallsend NSW 2287",54.9911912,-1.5342042
"79 Union Road, NORTH ALBURY NSW 2640",-36.052848850000004,146.936169
"2399 Princes Highway, BEWONG NSW 2540",-35.0804983484589,150.54795997602037
"Post Office Residence 8 Boundary St, CAROONA NSW 2343",-31.4072745,150.4269943
"411-417 Cleveland St, REDFERN NSW 2016",-33.88916175330202,151.2014674777517
"171 Manilla Rd, OXLEY VALE NSW 2340",-31.057820661540017,150.8956669145577
Cnr Bomera St & Premer St Premer NSW 2381,-31.4547403,149.900023
"27 HASTINGS ST, WAUCHOPE NSW 2446",-31.454750063058796,152.73275370812047
"221 BRINGELLY RD, LEPPINGTON NSW 2179",-33.9520421,150.8146749
"1135 Pacific Highway, LAKE MUNMORAH NSW 2259",-33.186375,151.552335
"Reflections Holiday Parks Fashions Mount Road, MUMBIL NSW 2820",-32.7240743,149.0499759
"57 ADDERTON RD, TELOPEA NSW 2117",-33.7933949,151.0412913
"51 CHARLES ST, COONABARABRAN NSW 2357",-31.275254863818223,149.2805855890609
"112 Rookwood (Cnr Brunker) Rds, Yagoona NSW 2199",-33.9067491,151.0243075
"464 Cabramatta Road West, Mount Pritchard NSW 2170",-33.89565784214223,150.9090470822261
"188 HIGH ST, WAUCHOPE NSW 2446",-31.46648389044239,152.71891769014022
"58 Stennett, Ingleburn NSW 2565",-34.00184939144257,150.85301174313602
"6 TRIM ST, SOUTH NOWRA NSW 2541",-34.914015557019084,150.5835518412495
"20 Carrington Street, Crookwell NSW 2583",-34.454918460023336,149.4639848723323
"134 John Street, Lidcombe NSW 2141",-33.8546647,151.0467445
"423 Frome St, Moree NSW 2400",-29.4647483952649,149.84301522283306
"5 Forbes Street, YEOVAL NSW 2868",-32.753709,148.647829
"198 Beach Road, Batehaven NSW 2536",-35.72711715,150.1958326415761
"336 Victoria Street, Deniliquin NSW 2710",-35.5284468239193,144.9855755629525
"23 FITZROY ST, BINALONG NSW 2584",-34.67375671300864,148.63766560083783
"157 Narellan Rd (Cnr Smeaton Grange Rd), Mount Annan NSW 2567",-34.0628307,150.7576322
"23-29 Isabella Street, Wingham NSW 2429",-31.868364200000002,152.3700337
"Cnr Zouch and Edward Streets, Young NSW 2594",33.1508315,-98.6962766
"124 Nymagee Street, Nyngan NSW 2825",-31.56280741315634,147.19871157935555
"1a Binnia St, COOLAH NSW 2843",-31.8201549,149.7255297
"659 GROSE VALE RD, GROSE VALE NSW 2753",-33.5892927,150.69615336238635
"39 OAKS ST, THIRLMERE NSW 2572",-34.203343000000004,150.5685288
"Lhotsky St & Charnwood Pl, Charnwood ACT 2615",52.7392639,-1.1370832780406597
"240 Hume Highway, LANSVALE NSW 2166",-33.89777046381895,150.95226716372562
"45 MAIN ST, CUNDLETOWN NSW 2430",-31.898581925693076,152.51774556659822
"42 MALBON ST, BUNGENDORE NSW 2621",-35.25623229999999,149.44249862264599
"46 ALBERT ST, FRESHWATER NSW 2096",-33.777421149999995,151.2869619723142
"387 427 Wattle St, ULTIMO NSW 2007",46.512090549999996,10.899735392353554
"729 The Horsley Dr, SMITHFIELD NSW 2164",-33.85050779128803,150.9198634629685
"33-35 LAGOON ST, GOULBURN NSW 2580",-34.74634107306876,149.73095328845437
"Cnr Priestly & Cavendish Sts, Mittagong NSW 2575",-34.4500664,150.4473469
"208 Byron Street, Inverell NSW 2360",-29.76982951044798,151.1171529290204
"232 HIGH ST, WAUCHOPE NSW 2446",-31.46648389044239,152.71891769014022
"1233 Victoria Road (Cnr Marsden Rd), West Ryde NSW 2114",-33.8094444,151.0858333
"90-94 Queen Street (Cnr Broughton Street), Campbelltown NSW 2560",-34.0636914,150.8206159
"363 Vardys Road, Kings Park NSW 2148",-33.74545140530125,150.90015061481293
"5 Canavan Dr, BERESFIELD NSW 2322",-32.80050547682957,151.63403615078076
"1-3 Tapio Street, Dareton NSW 2717",-34.094650619725776,142.04446896810603
"59-63 Tudor Street, HAMILTON NSW 2303",-32.92391983762046,151.74641769404693
"27 Thompson St, Bundeena NSW 2230",-34.0824818,151.14597615
"181 The Boulevarde, Miranda NSW 2228",-34.029000249999996,151.09875065
"5 Hooper Dr, COONAMBLE NSW 2829",-30.944028296969385,148.37578657429572
"130 EDGAR ST, CONDELL PARK NSW 2200",-33.933208172851856,151.01181066285554
"34 Sherriff Street, Forbes NSW 2871",-33.386703049999994,148.00975014155523
"128 Duffy Avenue, Westleigh NSW 2120",-33.72039,151.06893
"529-531 Princes Highway & Bath Road, Kirrawee NSW 2232",-34.0344781,151.0726428
"609 Hovell St, SOUTH ALBURY NSW 2640",-36.08760866468074,146.9202858011939
"140 FLUSHCOMBE RD, BLACKTOWN NSW 2148",-33.77699802404303,150.90758401103827
"Corner Shellharbour & Wattle Roads, Shellharbour NSW 2529",-34.58647365,150.76933361779624
"486 LONDONDERRY RD, LONDONDERRY NSW 2753",-33.6426715,150.7357249
"63 CONNELLS POINT RD, SOUTH HURSTVILLE NSW 2221",-33.97482994080464,151.106875315249
"283 MAIN RD, FENNELL BAY NSW 2283",-32.98942211394748,151.60072948481078
"10-12 Park Ave, Punchbowl NSW 2196",-33.9180655,151.0632359344027
"380 Wollombi Rd, BELLBIRD NSW 2325",-32.85985244138679,151.32036529340004
"25-33 Erskineville Road, ERSKINEVILLE NSW 2043",-33.899861809719404,151.18517804325984
"100 COLLIER ST, REDHEAD NSW 2290",-33.009434571490985,151.71608961748967
"129 Lagoon Street, Goulburn NSW 2580",-34.74634107306876,149.73095328845437
"State Recreation Area, 2373 Burrinjuck Road, BOOKHAM NSW 2582",-34.8143423,148.6408169
"M4 Motorway Eastbound , Eastern Creek NSW 2766",-33.8059423,150.849956
"277 Conadilly St, GUNNEDAH NSW 2380",-30.98615278641301,150.26699995531126
"84 Centre St, Casino NSW 2470",-28.8699711,153.04358128666982
"7452 Newell Hwy, Beckom NSW 2665",-34.337239608502365,147.02275657444426
"Mulgoa Road & Wolseley Road, Jamisontown NSW 2750",-33.7679769,150.674815
"53 Gregory Cres, LAKE ALBERT NSW 2650",-35.1665082459917,147.38474232771028
"61-63 CHRISTIE ST, ST MARYS NSW 2760",-33.74751289782139,150.7769716814306
"46 LOWE ST, QUEANBEYAN NSW 2620",-35.3549082,149.2328066
"532 Old Northern Road, Dural NSW 2158",-33.6934847,151.0202716
"Newell Highway, Bellata NSW 2397",-29.87952280349992,149.78815989903455
"102 Milperra Rd, REVESBY NSW 2212",-33.93600739071672,151.01110425802287
"31-33 MAITLAND ST, MUSWELLBROOK NSW 2333",-32.26891528356011,150.88749340314385
"481A URANA RD, LAVINGTON NSW 2641",-36.04277817763882,146.9287341292725
"26 Durham Rd, EAST GRESFORD NSW 2311",-32.426021787184204,151.54640106608485
"1 Wallgrove Rd, Eastern Creek NSW 2766",-33.815724034336235,150.85134552993776
"12 INGERSOLE DR, KELSO NSW 2795",-33.4217417,149.62622019999998
"88 Louee St, Rylstone NSW 2849",-32.80133819479082,149.97023008970845
"13-15 Pacific Highway, GATESHEAD NSW 2290",-32.98341301151144,151.69213816467482
"3174 New England Hig, Black Mountain NSW 2365",43.6065985,-73.5311521
"169 RIVERSIDE DR, Jugiong NSW 2726",-34.83716255994159,148.30951847046205
"67-71 Scenic Drive, Budgewoi NSW 2262",-33.23497933496294,151.55797183423388
"941-953 Burke Road, Waterloo NSW 2147",42.498275,-92.3328743
"51 Roberts Road (Cnr Amarina St), Greenacre NSW 2190",-33.9022902,151.058546
"Pacific Highway, Coolongolook NSW 2423",-32.250856901573506,152.32299172842576
"298 Stewart St (Cnr Rocket St), Bathurst NSW 2795",-33.4166378,149.5804943
"Lot23 Illaroo Road, North Nowra NSW 2541",-34.86196975,150.6008793
"78 Currajong St (Cnr Bushman Street), Parkes NSW 2870",-33.1368067,148.1754823
"142-148 Corrimal St, Wollongong NSW 2500",-34.42751092841379,150.8995449803755
"612 Forest Road, Penshurst NSW 2222",-33.9615362,151.07934845347083
"1542  Federal Highway Service Road, Sutton NSW 2620",-35.20359154855046,149.20776458721318
"18/19 Monaro Street, Wyndham NSW 2550",-36.9286423,149.64409715
"26-28 Smithfield Road, SMITHFIELD NSW 2164",-33.8602272076333,150.92857952964113
"30 Links Ave, EAST BALLINA NSW 2478",-28.84728448612383,153.58275012318
"59 Durham Street, Bathurst NSW 2795",-33.40882040424327,149.57643025625904
"3 Metella Road & Corner Cornelia Road, Toongabbie NSW 2146",-33.7866894,150.9526498
"122 High St, GRETA NSW 2334",-32.6785651805763,151.39011903265236
"111 Sutton St, COOTAMUNDRA NSW 2590",-34.64847186522888,148.02022825054678
"76 Gartside St, Wanniassa ACT 2903",-35.40556555,149.10142402364323
"94 Rouse St, TENTERFIELD NSW 2372",-29.049753592818437,152.01983896131023
"131 Pennant Hills Rd, CARLINGFORD NSW 2118",-33.787624,151.0279422
"334-336 Parramatta Rd, HOMEBUSH WEST NSW 2140",-33.8581543,151.0681261
"63 York St, Teralba NSW 2284",-32.95782405,151.61169525
"99 URANA ST, JINDERA NSW 2642",-35.95398299740947,146.8881993770944
"144 MEADE ST, GLEN INNES NSW 2370",-29.73722985207499,151.73685340140605
"182 TWEED VALLEY WAY, SOUTH MURWILLUMBAH NSW 2484",-28.33916472928421,153.400964214859
"770 Richmond Road, Berkshire Park NSW 2765",-33.64186759502959,150.78606310388992
"115 Sackville Street, FAIRFIELD NSW 2165",-33.864096849258225,150.95089393965586
"Shop 1 531 Ocean Dr, NORTH HAVEN NSW 2443",41.0128704,-72.3129721
"51 Whyalla St, Fyshwick ACT 2609",-35.33334075,149.17751615
"166 John St, CABRAMATTA NSW 2166",-33.89439056713642,150.93106008701486
"220 Main Street, West Wyalong NSW 2671",-33.92355809796037,147.21044721022392
"Cnr Gordon & Hollingsworth Sts, PORT MACQUARIE NSW 2444",-31.4299499,152.9103525
"Lot 3 Great Western Highway (Cnr John Hines Ave), Minchinbury NSW 2770",-33.7866731,150.8272222
"31-65 Yamba Road, Yamba NSW 2464",-29.436835897620526,153.35026271177193
"77 CANBERRA AV, GRIFFITH ACT 2603",-35.322204032942246,149.14555426564124
"2 HAWTHORN ST, DUBBO NSW 2830",-32.25993386153216,148.62426751299216
"70 Vales Rd, MANNERING PARK NSW 2259",-33.16354402052509,151.5345988199614
"Hume highway & Sheahan Bridge, GUNDAGAI NSW 2722",-35.0726969,148.09483375
"279 COMUR ST, YASS NSW 2582",-34.83966471450317,148.9091018898528
"36 EVANS RD, TUROSS HEAD NSW 2537",-36.058416034909264,150.1389382348452
"108 CANTERBURY RD, BANKSTOWN NSW 2200",-33.93467498546768,151.03633310014285
"89-93 Marsh St, Armidale NSW 2350",-30.50346505221598,151.67293530599483
"LYNDHURST AUTO-PORT 6518 MID WESTERN HWY, LYNDHURST NSW 2797",40.8120247,-74.1242816
"16-18 Gill St, MOONBI NSW 2353",-31.02217749637974,151.06971500937934
"1B Butler St, Byron Bay NSW 2481",-28.648415440270885,153.61105880098938
"109 GUNNEDAH RD, TAMINDA NSW 2340",-31.0977019,150.89097343516787
"34 Wharf St (Cnr Frances St), Tweed Heads NSW 2485",-28.1786639,153.5369986
"42 SPENSER ST, ILUKA NSW 2466",-29.4065426944334,153.35183451152463
"2046 PUTTY RD, BULGA NSW 2330",-32.6526648,151.0202634487997
"70 CLIFFORD ST, GOULBURN NSW 2580",-34.74868749788271,149.71258365459792
"1 Coast Road, Hastings Point NSW 2489",-28.3638889,153.5747222
"291 Rooty Hill Road North, Plumpton NSW 2761",-33.75856842103424,150.83965712829772
"2600 THE LAKES WAY, BUNGWAHL NSW 2423",-32.39278337965823,152.4372591144261
"102-108 Taren Point Road, Taren Point NSW 2229",-34.01353628611346,151.12466694964874
"57 High Street, Wauchope NSW 2446",-31.46648389044239,152.71891769014022
"Cnr George St and Burdett St, Hornsby NSW 2077",-33.5724083,151.13177549754764
"1&3 Rodeo Rd (160 Camden Valley Way), Gregory Hills NSW 2557",-34.0276788,150.776302
"174 NEW ENGLAND HWY, RUTHERFORD NSW 2320",-32.720600688209935,151.53806104413758
"481 Pacific Highway, Wyoming NSW 2250",-33.39279173482074,151.3510683179018
"86 Johnston St, CASINO NSW 2470",-28.859659,153.0561943
"100 Ocean Drive, Port Macquarie NSW 2444",-31.4771812,152.9146083
"1962 Camden Valley Way, EDMONDSON PARK NSW 2174",-33.95048983839366,150.84333761182663
"210-214 Wollombi Road, Cessnock NSW 2325",-32.85985244138679,151.32036529340004
"Cnr Victoria Rd & Evans St, Rozelle NSW 2039",-33.8645002,151.1743543
"3 Travelstop Way, Lavington NSW 2641",-36.03690485731184,146.96943559618643
"76-82 PEISLEY ST, ORANGE NSW 2800",-33.293060600475016,149.10188564045066
"898-902 Victoria Rd, West Ryde NSW 2114",-33.8118945,151.0945993844564
"112-118 Caswell St, PEAK HILL NSW 2869",-32.7267826,148.1916434
"Jersey Road (Plumpton Market Place), Plumpton NSW 2761",50.92332315,-0.06525685126144444
"86 GREAT WESTERN HWY, COLYTON NSW 2760",-33.77493485,150.79406319999998
"1 Perry Street, MENINDEE NSW 2879",-32.39459617739368,142.42048942815947
"BP SERVICE STATION 169 RIVERSIDE DR, JUGIONG NSW 2726",-34.822584,148.3255071
"363 Windsor Rd (Cnr Olive St), Baulkham Hills NSW 2153",-33.7611198,150.9914041
"20 NEELD ST, WYALONG NSW 2671",-33.92440660882074,147.22877695413905
"102 CHURCH ST, GLEN INNES NSW 2370",-29.743313767544503,151.73719199811975
"135 UNION ST, SOUTH LISMORE NSW 2480",-28.818110901097857,153.2658281132176
"120-128 Forrester Road, ST MARYS NSW 2760",-33.75528695,150.7754145328552
"47-51 Girilambone Street, COOLABAH NSW 2831",-31.026487,146.7126096
"178 WARREN RD, GILGANDRA NSW 2827",-31.7088898,148.67157530444476
"Cnr Warnoon & Palm Avenue, Leeton NSW 2705",-34.52975335,146.29325801998567
"41-43 Princes Hwy, UNANDERRA NSW 2526",-34.44883412882838,150.85025683994854
"100 Belgrave Street, Kempsey NSW 2440",-31.079520175713725,152.83434472159402
"33-35 Princes Highway, MOGO NSW 2536",-35.78454285414999,150.14171194812653
"CARAVAN PARK 11530 BLACK STUMP WAY, MULLALEY NSW 2379",-31.0975254,149.9089147
"18 Gundaroo Dr, Gungahlin ACT 2912",-35.184717090593644,149.1227549104803
"69 Queen Street, Barraba NSW 2347",-30.383555450000003,150.60960225000002
"481 Port Hacking Road, LILLI PILLI NSW 2229",-34.063524868626374,151.12003618312866
"8 Wallaga Lake Road, Bermagui NSW 2546",-36.397596536210784,150.05382477870643
"Lot 127 Lot 127 Back Yamma Rd, Daroobalgie NSW 2870",-33.3105208,148.1591651
"588 HIGH ST, PENRITH NSW 2750",-33.750455349999996,150.68706515
"Lot 1 Quanda St, HERMIDALE NSW 2831",-31.547643122966623,146.72227379215107
"1 Law Close, GUNNEDAH NSW 2380",-30.96354332831587,150.23235476864804
"137-141 Kingsgrove Road, Kingsgrove NSW 2208",-33.93104507946519,151.09896916748025
"575-581 Great Western Highway, Faulconbridge NSW 2776",-33.6941556,150.5373983117886
"1-3 HI-TECH DR, TOORMINA NSW 2452",-30.34274037478389,153.0901975981894
"40 Princes Highway, UNANDERRA NSW 2526",-34.46707827741536,150.83090629895545
"208-212 Cabramatta Rd, Cabramatta West NSW 2166",-33.8993634,150.91918955
"U 1 39 Melbourne St, EAST MAITLAND NSW 2323",-32.7575206,151.5854642
"139 Great Western Highway (Corner Layton Avenue), Blaxland NSW 2774",-33.7460755,150.6092697
"32-36 Woodpark Rd, WOODPARK NSW 2164",-33.8410623,150.963337832898
"Shop 1, 135-137 Popondetta Road, Emerton NSW 2770",-33.7477024,150.8043608
"50 Moulamein Rd, Barham NSW 2732",-35.5131644,144.2087745
"68 Goldsmith Street, GOULBURN NSW 2580",-34.7462167,149.7123697
"76 TAMBAR RD, TAMBAR SPRINGS NSW 2381",-31.3333498,149.9713182
"155-157 Princes Highway, Ulladulla NSW 2539",-35.3327146,150.4529139
"38 Adam's Street, Wentworth NSW 2648",43.8724198,-71.9130828
"Cnr of Arthur Kaine Drive and Dunns Lane, MERIMBULA NSW 2548",-36.8882027,149.909846
"28 Great Western Highway, Valley Heights NSW 2777",-33.7016307,150.5818272
"1 DUNN RD, SMEATON GRANGE NSW 2567",-34.032267649999994,150.75615569752108
"10 GEORGE ST, MARULAN NSW 2579",-34.7154743,149.99991
"1106 GREAT WESTERN HWY, BOWENFELS NSW 2790",-33.46346395452833,150.12265053854657
"220 Port Hacking Road, Miranda NSW 2228",-34.03257309557735,151.109514764036
"Cnr Avenue & Cowles Roads, Mosman NSW 2088",-33.8301355,151.2447663
"51 LAMBTON RD, WARATAH NSW 2298",-32.9092845,151.7176605
"8/12 Wiluna St, Fyshwick Wiluna ACT 2609",-35.3288327,149.1649557
"351-357 Stoney Creek, KINGSGROVE NSW 2208",-33.95113548218226,151.09234901357434
"134 Brighton Ave, CAMPSIE NSW 2194",-33.9034846669787,151.10712184211943
"105 WYEE RD, WYEE NSW 2259",-33.17585084284493,151.48398204767182
"51 Tweed Valley Way, Murwillumbah NSW 2484",-28.33916472928421,153.400964214859
"281 HOMER ST, EARLWOOD NSW 2206",-33.93185715,151.11347625000002
"257-263 Great Western Hwy, BLACKHEATH NSW 2785",-33.633776,150.28514695479703
"29 TONGS ST, FINLEY NSW 2713",-35.648913,145.5669866
"434 Crown St, Wollongong West NSW 2500",-34.4259205,150.8758254
"98-100 Windsor Rd Cnr Lombard Rd, Northmead NSW 2152",-33.7844423,150.9983289
"1049 Armidale Rd, NEMINGHA NSW 2340",-31.1241305,150.9823726
"176 Otho St, Inverell NSW 2360",-29.775413487853605,151.1127169759309
"98 Tumut Street, ADELONG NSW 2729",-35.308791799999995,148.06622905
"UNIT 1 237-245 BURNS BAY RD, LANE COVE WEST NSW 2066",-33.8119396,151.150078
"8 CRYSTAL ST, PETERSHAM NSW 2049",-33.894878016248875,151.15712938530083
"4136 NELSON BAY RD, ANNA BAY NSW 2316",-32.7694073,152.0351052
"Tomakin Auto Centre, Tomakin NSW 2537",-35.8231539,150.1861457431919
"332-336 Shellharbour Rd, BARRACK HEIGHTS NSW 2528",-34.566787,150.8601418
"1408 Pacific Highway (Corner Duff Street), Turramurra NSW 2074",-33.7328828,151.128541
"NARELLAN RD CNR MAXWELL PL, NARELLAN NSW 2567",-34.0419063,150.7376955
"Macarthur Gardens Village U 57 100 Gilchrist Drive, CAMPBELLTOWN NSW 2560",-34.0636914,150.8206159
"485 RIVER ST, WEST BALLINA NSW 2478",-28.86348195,153.53502696895853
"50 KUNGALA RD, HALFWAY CREEK NSW 2460",-29.9186157,153.06872110690304
"3012 STURT HWY, ALFREDTOWN NSW 2650",-35.1638658,147.5657812
"35 WARATAH ST, TUMUT NSW 2720",-35.2998578,148.2056411
"450 Creek Ridge Road, GLOSSODIA NSW 2756",-33.54079885365345,150.79422287005286
"96-104 ANSON ST, BOURKE NSW 2840",-30.0920974,145.9201379
"210 HIGH ST, WAUCHOPE NSW 2446",-31.4666056,152.7191446
"1 SHARON RD, BATEMANS BAY NSW 2536",-35.718981395802714,150.1733814546801
"35 COLLINS ST, KIAMA NSW 2533",-34.6699269,150.8520286
"741 George St, Windsor South NSW 2756",-33.63824005,150.78471202457516
"35A MAXWELL ST, WELLINGTON NSW 2820",-32.55935383288699,148.9546010508447
"1325 GLOUCESTER RD, WINGHAM NSW 2429",-31.87233090838516,152.36493907319277
"101 Gosport St, MOREE NSW 2400",-29.4761615,149.8472983
"148 Bridges Rd, NEW LAMBTON NSW 2305",-32.9275924,151.7168635
"Cnr Silverwater Road & Derby Street, SILVERWATER NSW 2128",-33.1029115,151.5600857
"93 Princes Hwy, Bodalla NSW 2545",-36.05159062286997,150.06782379179964
"2-6 Griffith Ave, Griffith NSW 2680",-34.334545000000006,146.00810419285347
"100 Rookwood Road, Yagoona NSW 2199",-33.8992302,151.0367578
"Avoca Dr & Bungoona St, Kincumber NSW 2251",-33.465,151.3927778
"90 DAVIDSON ST, DENILIQUIN NSW 2710",-35.5232276,144.9811849
"60 DAVIES RD, KANDOS NSW 2848",-32.8554861,149.9713893
"15 Bagnall Beach Road, SALAMANDER BAY NSW 2317",-32.73480558116421,152.10958422259756
"2 Rawson Road, GUILDFORD NSW 2161",-33.86128795484815,150.9943027137725
"93-99 ADDISON RD, MARRICKVILLE NSW 2204",-33.90396,151.1678808
"24-26 Summerland Way, KYOGLE NSW 2474",-28.4850745,152.9271561
"UNIT 4 26 FERODALE RD, MEDOWIE NSW 2318",-32.7316667,151.8511111
"85 Muldoon St, TAREE NSW 2430",-31.8977397,152.4496516
"Cnr The Horsley Dr & Mcilwraith St, WETHERILL PARK NSW 2164",-33.8483333,150.9011111
"114-118 Church St, MUDGEE NSW 2850",-32.610059951310674,149.58483877509158
"90 VICTORIA ST, TEMORA NSW 2666",-34.4482092,147.5367149
"Lot 1548 Roberts Rd, Eastern Creek NSW 2766",-33.8059423,150.849956
"176 Warren Road, GILGANDRA NSW 2827",-31.7101335,148.6498234
"195 Cobra St, Dubbo East NSW 2830",-32.2538253,148.62189763543554
"522 Smithfield Road, Prairiewood NSW 2176",-33.8721085,150.90013519066827
"335 Pacific Highway, Lake Munmorah NSW 2259",-33.190552134479624,151.5673930440625
"47 Orana Road, Gwandalan NSW 2259",-33.13602,151.5833232
"127 Loftus Ave, Loftus NSW 2232",-34.03614643994145,151.05351205651226
"211 Great Western Hwy, BLACKHEATH NSW 2785",-33.63753654999999,150.28534959649446
"Cnr Ryan Avenue & Burn Lane, Singleton NSW 2330",-32.602355,151.11328870731222
"6 MACKAY AV, GRIFFITH NSW 2680",-34.2936753,146.0695926
"2 Princes Highway, St Peters NSW 2044",-33.91732185372245,151.17189482299483
"397 Pacific Highway, Belmont NSW 2280",-33.0245154,151.66349007860168
"283 MANNS RD, WEST GOSFORD NSW 2250",-33.422894261434266,151.31963643357767
"20 Burwood Road, CONCORD NSW 2137",-33.8673973,151.1053291
"141 CHURCH ST, GLOUCESTER NSW 2422",-32.012237999999996,151.95795165806027
"599 Old South Head Rd, Rose Bay NSW 2029",-33.8692422,151.27736702323114
"49/51 Meninya St, Moama NSW 2731",-36.1111463,144.75490025648872
"940 Pittwater Road & Hawkesbury Avenue, Dee Why NSW 2099",-33.7526555,151.2875707
"M1 Southbound, Wyong NSW 2259",-33.2825132,151.4256691
"65  Greenbah Road, Moree NSW 2400",-29.4612275,149.8186359
"Were St, Calwell ACT 2905",-35.4361871,149.1136016
"12 ARGYLE ST, BARRINGTON NSW 2422",-31.973619,151.911732
"8611 BRUXNER HWY, TABULAM NSW 2469",-28.9005289,152.5910321
"2021 New England Hwy, Greta NSW 2334",-32.673484,151.3841057
"155 The Entrance Rd, ERINA NSW 2250",-33.43512147658063,151.38627211440325
"260 Pacific Hwy (Cnr Basford Road), Doyalson North NSW 2259",-33.1872222,151.5427778
"657 THE NORTHERN ROAD, BRINGELLY NSW 2556",-33.94390769603253,150.73627531055354
"63 Maitland Street, Bingara NSW 2404",-29.8710631,150.5729259
"20 BOLARO ST, DUNEDOO NSW 2844",-32.0161026,149.3949821
"54 Alison Road, Randwick NSW 2031",-33.906933089395004,151.23214650988663
"386 Pennant Hills Rd, Pennant Hills NSW 2120",-33.739286,151.06797
"63-65 Marsden Street, BOOROWA NSW 2586",-34.4413678,148.71608944652655
"354 Corner Flushcombe Road & Myrtle Street, Blacktown NSW 2148",-33.7401885,150.86483553289474
"17 Bridge Street, Tamworth NSW 2340",-31.0927487,150.9202459
"14- Bernera Road, Prestons NSW 2170",-33.933243589215856,150.86916173841638
"141 Sturt Hwy, BURONGA NSW 2739",-34.1723052,142.1803272
"36 Lagoon Street, BEGA NSW 2550",-36.668183,149.8288724
"403 Canterbury Road, Campsie NSW 2194",-33.9209618,151.0977995
"Lot 12, 51 Pacific Highway, Viney Creek NSW 2324",-35.291629,150.15548
"132 CAREY STREET, Toronto NSW 2283",43.6534817,-79.3839347
"49 Murray Terrace, Euston NSW 2737",-34.57817956673245,142.7446668889722
"28 JOHNS RIVER RD, JOHNS RIVER NSW 2443",-31.7312795,152.6941029
"207-209 Wallarah Rd, KANWAL NSW 2259",-33.2529351,151.4918444
"SERVICE STATION 53 LAMBRIGG ST, FARRER ACT 2607",-35.3766895,149.1050381
"86-98 Princes Hwy, UNANDERRA NSW 2526",-34.46707827741536,150.83090629895545
"209-211 ROTHERY ST, BELLAMBI NSW 2518",-34.3689361,150.9166458
"415 Boundary Road, Maraylya NSW 2765",-33.58774020493823,150.92026723002468
"Smithfield Rd, Cnr Elizabeth Drive, BONNYRIGG NSW 2177",55.8751189,-3.1059076
"1766 Horsley Drive, Horsley Park NSW 2175",-33.8421459,150.8534839
"571 Beryl Street, Broken Hill NSW 2880",-31.9498657,141.4752762
"The Entrance, FORRESTERS BEACH NSW 2260",-33.40371347420719,151.46696164399796
"206 Adelaide Street, HEATHERBRAE NSW 2324",-32.78087498386878,151.7376274758427
"81 BANNA AV, GRIFFITH NSW 2680",-34.289747408206125,146.05974328796754
"746-752 Richmond Road, Berkshire Park NSW 2765",-33.6816667,150.7844444
"182 Tweed Valley Way, Murwillumbah NSW 2484",-28.33916472928421,153.400964214859
"119 Harbord Rd, Freshwater NSW 2096",-33.77517774828094,151.27923912134776
"756 Pittwater Rd (Cnr West St), Brookvale NSW 2100",-33.7628854,151.2707024
"427 Bungarribee Road, Doonside NSW 2767",-33.77352381324913,150.87860320984524
"264 Beach Rd, BATEHAVEN NSW 2536",-35.73251335,150.19974755165816
"BLUE DOPLHIN CARAVAN PARK 31-65 YAMBA RD, YAMBA NSW 2464",12.366536199999999,0.4639965108331714
"29 Lord St, PORT MACQUARIE NSW 2444",-31.4392404,152.9178302
"278 SANDGATE RD, SHORTLAND NSW 2307",-32.8877186,151.6953481
"1579 BOTANY RD, BOTANY NSW 2019",-33.945794083450515,151.19713772512029
"13125 Hume Highway (Cnr Sally Corner Rd), Sutton Forest NSW 2577",-34.5672546,150.3212358
"72 Bolaro St, DUNEDOO NSW 2844",-32.0161026,149.3949821
"45 JEWRY ST, TAMINDA NSW 2340",-31.0826152,150.9160554
"64 Uriarra Road, CRESTWOOD NSW 2620",-35.3442863,149.2143735
"271-273 Charlestown Rd, CHARLESTOWN NSW 2290",-32.9600681,151.6934229
"Cnr Eagle Vale Dve & Gould Rd, Eagle Vale NSW 2558",-34.0377778,150.8111111
"60 Hill Road, LURNEA NSW 2170",-33.92938601446892,150.89716750719066
"21 Main St, CLUNES NSW 2480",-28.7288976,153.4066326
"39 Vernon Street, Woollahra NSW 2025",-33.8898301,151.24745213831392
"115 BELLAMBI LANE, BELLAMBI NSW 2518",-34.3628162,150.9123994
"99 QUEENSLAND RD, CASINO NSW 2470",-28.847812552925905,153.04592602891736
"75-77 Fitzroy Street, Grafton NSW 2460",-29.6921801,152.9343764
"309A WOLLOMBI RD, BELLBIRD HEIGHTS NSW 2325",-32.8521292,151.327002
"141 Pacific Drive,, Port Macquarie NSW 2444",-31.467803,152.9206835
"740 Hume Highway, Yagoona NSW 2199",-33.90515641130917,151.01212978726556
"2 Bridges Road, MOOREBANK NSW 2170",-33.92825355768282,150.93233950925853
"9999 Pacific Hwy, BULAHDELAH NSW 2423",-32.42573994735265,152.1966377397042
"28 Morgan St, Uranquinty NSW 2652",-35.1913456,147.248507
"29 President Ave, KOGARAH NSW 2217",-33.96444935699262,151.13775195191315
"331 PRINCES HWY, MILTON NSW 2538",-35.32227727165197,150.44334522282023
"UNIT 2 3030 REMEMBRANCE DVWY, BARGO NSW 2574",13.4173096,-1.4982686
"4467 Gywdir Highway, JACKADGERY NSW AUSTRALIA 2460",-29.5816646,152.5511068
"2 Geebung St, POLO FLAT NSW 2630",-36.2318,149.1513
"1 Brookfield Road, Minto NSW 2566",-34.030873362078005,150.84865602196587
"281 New Canterbury Rd, Lewisham NSW 2049",-33.89677313365966,151.14886426596902
"41 - 43 Third Avenue, Blacktown NSW 2148",-33.76503046798428,150.9080009969269
"678 The Horsley Drv (Cnr Cumberland Hwy), Smithfield NSW 2164",35.5111996,-78.346102
"474 FOREST RD, BEXLEY NSW 2207",-33.9514138,151.1254222
"Lot no 13 South Western Freeway, Pheasants Nest NSW 2574",-34.2485,150.6512
"12 Gallipoli St, St Marys NSW 2760",-33.781018928690656,150.7698685041192
"44 Main St, WILLAWARRIN NSW 2440",-30.929053,152.627037
"1443 Elizabeth Drive, Kemps Creek NSW 2178",-33.8799117,150.791754
"Shop 3, 1190 Miami Street Glenwood NSW 2768",41.5424867,-87.6022765
"151 Prospect Hwy, SEVEN HILLS NSW 2147",-33.77270866374257,150.9365573369459
"316 Penhurst St, Willoughby NSW 2068",-33.80159955,151.1836478125075
"126 CHAPEL RD, BANKSTOWN NSW 2200",-33.92795255,151.02989054993878
"1 Hanrahan Place (Cnr Leeds Pde), Orange NSW 2800",33.750631,-117.8722311
"53 Punchbowl Rd, Belfield NSW 2191",-33.90718895,151.07738915000002
"1 Pine Avenue, Leeton NSW 2705",-34.5516377,146.4022597
"207 Broken Head Road, Suffolk Park NSW 2481",-28.7148783,153.5929203
"309 Victoria Rd, RYDALMERE NSW 2116",-33.811962,151.037119
"223 SHARP ST, COOMA NSW 2630",-36.233600800000005,149.12890085
"Cnr Kennedy Dve & Ducat St, Tweed Heads NSW 2485",-28.1786639,153.5369986
"200 Homer St, Earlwood NSW 2206",-33.93185715,151.11347625000002
"601 Pacific Hwy, Boambee NSW 2450",-30.348186951616672,153.06546276788183
"108-112 Smith Street, Kempsey NSW 2440",-31.07502335,152.84305674664705
"151 TWEED ST, BRUNSWICK HEADS NSW 2483",-28.5408578,153.5479077
"Lot 692, Corner Newell Highway, Parkes Road Forbes NSW 2871",-33.378772049999995,147.95343881310146
"442 Kurmond Road, Freemans Reach NSW 2756",-33.55345392114872,150.77175551636256
"2780 Booral Road, Booral NSW 2425",-32.4700805,151.9789891
"436 Wagga Rd Cnr Dick Rd, Lavington NSW 2641",-1.2740678,36.7762269
"90 Blacktown Road, Blacktown NSW 2148",-33.79817674839473,150.92634467161315
"45 Yanko Road, West Pymble NSW 2073",-33.762082,151.128511
"301 Hume Hwy, GREENACRE NSW 2190",-33.90588915,151.04017675
"2 Princes Hwy Cnr Kings Hwy, BATEMANS BAY NSW 2536",-35.7072183,150.178289
"74 Bentinck Street (Cnr Russell), Bathurst NSW 2795",-33.4166378,149.5804943
"8 Grattan St, HILLSTON NSW 2675",-33.4884738,145.5309477
"2 Corkwood Rd, VALLA NSW 2448",-30.6276984,152.9737047
"1686 FOREST RD, ORANGE NSW 2800",-33.3114264,149.0950184
"5 Riverside Drive, JUGIONG NSW 2726",-34.8265542,148.3158795
"254a Richardson Street, Spring Farm NSW 2570",-34.0694444,150.7272284
"461 HUME HWY, CASULA NSW 2170",-33.940278304550276,150.91260735305653
"30 YAMBA ST, YAMBA NSW 2464",-29.4416449,153.3651804
"198 Harbord Rd (Cnr Winbourne Rd), Brookvale NSW 2100",-33.7628854,151.2707024
"Corner Forrester Road & Christie Street, St Marys NSW 2760",41.3081707,-93.7318728
"971 Freemans Drive, Freemans Waterhole NSW 2323",-33.0065103,151.4891557
"149 Canberra Ave, Fyshwick ACT 2609",-35.323436799999996,149.1506497
"67 New South Head Rd, EDGECLIFF NSW 2027",-33.877894172020085,151.23432119879212
"33 BANDULLA ST, MENDOORAN NSW 2842",-31.822553,149.1191832
"109 CESSNOCK RD, WESTON NSW 2326",-32.812476500080344,151.44183302176916
"216 Tweed Valley Way, Murwillumbah NSW 2484",-28.33916472928421,153.400964214859
"24 LAKE ALBERT RD, KOORINGAL NSW 2650",-35.148156754093996,147.37213021148335
"66 Tallow Street, Moulamein NSW 2733",-35.0889907,144.0347531
"1 Suraci Place, QUEANBEYAN WEST NSW 2620",-35.3634362,149.2069407
"69 Marshal St, Cobar NSW 2835",-31.96666285,145.30450537474044
"77 Smith Street, Kempsey NSW 2440",-31.079092187731952,152.84214396724948
"2 BAKEHOUSE RD, NORTH ROTHBURY NSW 2335",-32.6934,151.3438
"11 Roberts Rd., Maroota NSW 2756",-33.464891212191915,151.00175018663603
"38 Maitland Road, Paterson NSW 2421",-32.6035336,151.6175585
"477-483 Miller St & Palmer St, Cammeray NSW 2062",-33.8222738,151.2139868
"217 Wentworth Avenue (Corner Bungaree Road), Pendle Hill NSW 2145",53.8685844,-2.2985841
"18 Allandale St, KEARSLEY NSW 2325",-32.85471323479897,151.3996000605272
"Lot 8 Comercial Road, Lalor Park NSW 2147",-33.7649937,150.9288833
"194 CAMPBELLTOWN RD, DENHAM COURT NSW 2565",-33.9929016552166,150.84484796518558
"28-32 Dyraaba St, Casino NSW 2470",-28.856074886252493,153.04986655871983
"1443 Camden Valley Way, Leppington NSW 2171",-33.95104658154842,150.83746982169862
"477 Pacific Highway, Artarmon NSW 2064",-33.80781096360969,151.1792162056981
"214 The Entrance Road, Erina NSW 2250",-33.43512147658063,151.38627211440325
"84 MARSDEN ST, BOOROWA NSW 2586",-34.44290375,148.71532214999996
"3-15 Union Street, Forbes NSW 2871",-33.37947793306063,148.01172053782207
"890 FREEMANS DR, FREEMANS WATERHOLE NSW 2323",-33.0065103,151.4891557
"81 Pacific Hwy, CHARLESTOWN NSW 2290",-32.9783116,151.6919256
"111 Terania Street, North Lismore NSW 2480",-28.788,153.2772
"125 Cobra Street, DUBBO NSW 2830",-32.2550646,148.6118304802879
"165 Cowper Street, Hillston NSW 2675",-33.4880124,145.5387429
"143 Meade Street, Glen Innes NSW 2370",-29.7376512,151.7378319
"136 Hume Highway (cnr Hollywood Drive), Lansvale NSW 2166",-33.9003985,150.9510782
"190 WATERLOO RD, GREENACRE NSW 2190",-33.916091241558846,151.0559694897804
"198-199 Great Western Hwy, HAZELBROOK NSW 2779",-33.72593274931644,150.45797059327205
"17 Ellen Street, Wollongong NSW 2500",-34.4299665,150.8939657
"2 Ferdinand Lane, JERRABOMBERRA NSW 2619",-35.3801819,149.1970008
"Cnr Woodcroft Dr & Richmond Road, Doonside NSW 2767",-33.7549501,150.8685985
"Lot 12, South Western Freeway, Pheasants Nest NSW 2574",-34.2485,150.6512
"97 Hume Highway, Chullora NSW 2190",-33.897248290104606,151.04939187879708
"620-628 ELIZABETH DR, BONNYRIGG HEIGHTS NSW 2177",-33.887874015250496,150.8765525915942
"393 Hillsborough Road  (Corner Macquarie Road), Warners Bay NSW 2282",-32.9739199,151.6489887
"42 SHARP ST, COOMA NSW 2630",-36.233600800000005,149.12890085
"295-301 MURRAY ST, FINLEY NSW 2713",-35.6472965,145.5742951
"99 Parraweena Rd (Cnr Taren Point Rd), Miranda NSW 2228",10.323350999999999,-66.48421205103482
"2137 Pacific Highway, Heatherbrae NSW 2324",-32.77822290100387,151.75208236145826
"342 Kanahooka Road, BROWNSVILLE NSW 2530",-34.4868335,150.80728
"15 BARRIER ST, FYSHWICK ACT 2609",-35.3308887,149.1776169
"656-658 THE ENTRANCE ROAD, WAMBERAL NSW 2260",-33.4146885,151.4505097
"139-141 Maitland St, MUSWELLBROOK NSW 2333",-32.26891528356011,150.88749340314385
"36 LONSDALE ST, BRADDON ACT 2612",-35.2709468,149.13355206995197
"449 Victoria St, WETHERILL PARK NSW 2164",-33.8448589,150.8920944
"66-68 Oxford Street, GATESHEAD NSW 2290",-32.978530047728924,151.68629261413565
"23 Pagan Street, JERRYS PLAINS NSW 2330",-32.4896256,150.902212
"5-7 WIRADJURI WAY, CONDOBOLIN NSW 2877",-33.074281,147.147001
"2-14 Henry Lawson Dr, TERRANORA NSW 2486",-28.2382215,153.5020217
"560-562 Victoria Road, ERMINGTON NSW 2115",-33.80789697856366,151.06856306486972
"85 Loder St, Quirindi NSW 2343",-31.5107904,150.6720574
"123-125 Caswell Street, Peak Hill NSW 2869",-32.7322247,148.1944906
"61-65 WHARF ST, TWEED HEADS NSW 2485",-28.17700002357829,153.54145237498338
"877-879 Pacific Hwy, Chatswood NSW 2067",-33.7938444,151.17935765
"482 River Street, West Ballina NSW 2478",-28.864384015781138,153.53072760027166
"19 Havannah Street, Bendemeer NSW 2355",-30.88007403238425,151.15605190487136
"6-8 Pacific Hwy, Kariong NSW 2250",-33.4410158,151.2561065
"24-28 Crabbes Creek, Crabbes Creek NSW 2483",-28.4615546,153.4612067
"475 The Entrance Rd, LONG JETTY NSW 2261",-33.3657142,151.4764164
"241 Waterworth Drive, Mount Annan NSW 2567",-34.04883738989255,150.76095490996056
"615-617 Hume Hwy, CASULA NSW 2170",-33.940278304550276,150.91260735305653
"3 Neil ST, Moama NSW 2731",-36.0786993,144.7489501
"1504 kyogle Road, Uki NSW 2484",-28.414450217019777,153.32965921784555
"85 Beach St, HARRINGTON NSW 2427",-31.8711337,152.6859297
"2 Leycester Street, Lismore NSW 2480",-28.8046458,153.2910063
"277-281 Princes Highway, Carlton NSW 2218",-33.97632445655871,151.1256251148587
"152 Toongabbie Rd, GIRRAWEEN NSW 2145",-33.79345849085968,150.94037433639934
"851 Richmond Road, Marsden Park NSW 2765",-33.69731189568799,150.8312565050926
"151 Mort St, LITHGOW NSW 2790",-33.4809175,150.1630347
"6532 Kosciuszko Rd, Jindabyne NSW 2627",-36.410463199999995,148.59724022780102
"7 STANDING ST, THE CHANNON NSW 2480",-28.674015,153.2788964
"Northgate Ctr  224 Princess Hway, Fairy Meadow NSW 2519",-34.3934364,150.8936267
"Kurrajong Road (Carnes Hill Marketplace), Hoxton Park NSW 2171",-33.9294022,150.8560164
"50 Pacific Hwy, DOYALSON NSW 2262",-33.20748790513652,151.5167110062405
"40 WILLIAM ST, CANDELO NSW 2550",-36.7663415,149.695384
"44-46 Vance Rd, LEETON NSW 2705",-34.526633,146.3895927
"422 Pacific Hwy, Artarmon NSW 2064",-33.80781096360969,151.1792162056981
"127A ALFRED ST, PARRAMATTA NSW 2150",-33.81726632703762,151.01747754599822
"Lot 16 - 25 Great Western Highway, Eastern Creek NSW 2766",-33.8059423,150.849956
"178 PACIFIC HWY, COFFS HARBOUR NSW 2450",-30.348186951616672,153.06546276788183
"59 John Street, Singleton NSW 2330",-32.56529207511626,151.16712002304746
"164 Mona Vale Road, ST IVES NSW 2075",-33.73289766171563,151.15565278992776
"107 King Georges Rd, Wiley Park NSW 2195",-33.92791445,151.0714758
"308-310 Parramatta Road, Stanmore NSW 2048",-33.8884658,151.16436347031038
"58 Fitzroy Street, Grafton NSW 2460",-29.69164017650265,152.93413540225126
"90 Campbell St, Narooma NSW 2546",-36.216659579288596,150.1311571703907
"339 Princes Highway, Sydenham NSW 2044",-33.91736119346061,151.17168776861578
"306-312 Forest Road (Cnr Fredrick St), Bexley NSW 2205",39.9692378,-82.936864
"UNIT 1 83 PRINCES HWY, ALBION PARK RAIL NSW 2527",-34.5625775,150.7978168
"11908 BARRIER HWY, LITTLE TOPAR NSW 2880",-31.7797069,142.2273623
"295 Quarry Rd, Denistone East NSW 2112",-33.7962842,151.0982887
"295 Woodville Rd, Guildford NSW 2161",-33.86250827218898,150.99184397252307
"21 BENGAL ST, COOLONGOLOOK NSW 2423",-32.2188225,152.3219418
"3 MARCONI CR, KAMBAH ACT 2902",-35.378555750000004,149.05732739565298
"9 Flinders St, Wollongong North NSW 2500",-34.4706488,150.892811
"68 BATHURST RD, ORANGE NSW 2800",-33.2957966,149.116618
"26-28 Georges River Rd (Cnr Carvers Rd), Oyster Bay NSW 2225",40.7696568,-73.49986083708588
"Invergowrie Store 171 Invergowrie Rd, INVERGOWRIE NSW 2350",56.4562504,-3.0578286
"229 High Street, Wauchope NSW 2446",-31.46648389044239,152.71891769014022
"Cnr Manning River Dr & Glenthorne, Taree South NSW 2430",-31.9339943,152.4538718
"21 White St Cnr Marius St, Tamworth NSW 2350",-31.0900743,150.9290159
"10 Pacific St, CRESCENT HEAD NSW 2440",-31.1884549,152.9726122
195 Main Rd Heddon Greta NSW 2321,-32.8090801,151.5004067
"36 WINE COUNTRY DR, CESSNOCK NSW 2325",-32.7979913,151.3498198
"2-8 DUNCANS RD, CLARENZA NSW 2460",-29.703235,152.9620276
"1234 Princess Highway, Engadine NSW 2233",-34.0650134,151.0138225
"1/3 Rogan St, Canberra Airport ACT 2609",-35.304391,149.1936903
"83 Byamee Street, Dapto NSW 2530",-34.4990571,150.803152
"15-19 Aspen Street, Penrith South NSW 2750",-33.776763720982636,150.71137399623646
"79 Lee Street, Wellington NSW 2820",-32.54987529837008,148.94100709026344
"770 Pacific Highway & Marks Point  Road, Marks Point NSW 2280",-33.0594444,151.6511111
"51 Smiths Rd, Somersby NSW 2250",-33.3561909,151.287497
"110 Galston Rd., Hornsby Heights NSW 2077",-33.67642795,151.09833460090587
"272 Princes Highway, Bomaderry NSW 2541",-34.86161043115866,150.6006043035222
"1 DAVID ST, GREENACRE NSW 2190",-33.89632932688672,151.0610197077824
"51 Albury St, HOLBROOK NSW 2644",-35.71936609460315,147.31709564876297
"137 Kenthurst Rd, Kenthurst NSW 2156",-33.66947193540504,151.00703074326168
"189 YAMBA RD, YAMBA NSW 2464",-29.4292964,153.327558
"575-585 Liverpool Road, Strathfield South NSW 2136",-33.89169225250775,151.0827916668847
"161 Cemetery Road, Corowa NSW 2646",-35.997437282856716,146.36791032960528
"12 Kingfisher Ave, COLEAMBALLY NSW 2707",-34.8061008,145.8827853
"661 MERRYLANDS RD, GREYSTANES NSW 2145",-33.82773077757283,150.9351250900461
"6,Doyle Rd, Revesby NSW 2210",-33.95169164530354,151.026067929462
"144 Beaconsfield Street, MILPERRA NSW 2214",-33.9421464,150.99793215574897
"254 BURNS BAY RD, LANE COVE NSW 2066",-33.814723674604906,151.1643956338361
"41 BROADARROW RD, NARWEE NSW 2209",-33.948049337286214,151.0722777461146
"Cnr Ebden & Wodonga Place, Albury NSW 2640",-36.0737734,146.9135265
"365 Liverpool Rd, South Strathfield NSW 2135",-33.89244484429455,151.0882711074058
"Cnr. Polaris & Hoskins Streets, Temora NSW 2666",-34.3830356,147.46858599208093
"94-96 Church Street, Glen Innes NSW 2370",-29.7269429,151.7401309
"143 Concord Rd, North Strathfield NSW 2137",-33.8594247,151.0929127
"154-160 Parramatta Road & Corner Bold Street, Granville NSW 2142",48.8376296,-1.5959177
"378 Pacific Highway, Belmont North NSW 2280",-33.0255517,151.6621477
"168-170 Snowy Mountains Hwy, Tumut NSW 2720",-35.31545801231521,148.23274638920466
"1112 Peatsridge Rd, Peats Ridge NSW 2250",-33.3316667,151.2344444
"3 ROGAN ST, CANBERRA AIRPORT ACT 2609",-35.304391,149.1936903
"186 Nasmyth St, Young NSW 2594",-34.3099977,148.2937759
"6 Kosciuszko rd, Jindabyne NSW 2627",-36.4300582,148.6240353
"175 Fitzmaurice St, Wagga Wagga NSW 2650",-35.100760750000006,147.3673346
"Newcastle St & William St, EAST MAITLAND NSW 2323",-32.7484228,151.5828731
"66 Parker Street (Cnr Copeland St), Penrith NSW 2747",54.6639133,-2.7522047
"66-70 Regent Street, CHIPPENDALE NSW 2008",-33.8878625,151.20173090346861
"16-20 MURRAY ST, FINLEY NSW 2713",-35.6472965,145.5742951
"119 Stenhouse Dr, CAMERON PARK NSW 2285",-32.8949705,151.5995001
"204-208 New Canterbury Rd, LEWISHAM NSW 2049",-33.89677313365966,151.14886426596902
"Corner Pacific Hwy and Halls Road, Coffs Harbour NEW SOUTH WALES 2450",-30.2985996,153.1094116
"76 The Parade, Tumbarumba NSW 2653",-35.772527097893196,148.01117171217777
"439 Princes Highway (Corner Massey Street), Carlton NSW 2218",46.5799933,-92.7206334
"147 Newbridge Rd, CHIPPING NORTON NSW 2170",-33.92878558937311,150.95882640759092
"200-204 Ben Boyd Rd (Cnr Ernest St), Neutral Bay NSW 2089",-33.8342887,151.2182049
"2 Cary Grove (Cnr Ben Lomond Drive), Minto NSW 2566",46.0776889,-66.0784986
"155-157 Rockwood Road, Yagoona NSW 2199",-33.9067491,151.0243075
"1 Braidwood Rd, GOULBURN NSW 2580",-35.0696773,149.6551171
169 Riverside Drive Jugiong NSW 2726,-34.8265542,148.3158795
"187 Wilson Road, Green Valley NSW 2168",-33.8988696001047,150.86725765598692
"1 High Street, BOMBALA NSW 2632",-36.9084412,149.2359409
"900 Pacific Highway, LISAROW NSW 2250",-33.382315694783735,151.37084847345994
"156 Gordon St, Port Macquarie NSW 2444",-31.434471653326913,152.90754819814214
"Hume Highway, Marulan South NSW 2579",-34.6622994,150.0749657
"1055 Great Western Highway, Minchinbury NSW 2770",-33.78117299976174,150.82205328639327
"SHOP 1 2790 REMEMBRANCE DVWY, TAHMOOR NSW 2573",-34.2253646,150.5907489
"4 KIAH STORE RD, KIAH NSW 2551",-37.1576778,149.8561225
"190 CANLEY VALE RD, CANLEY HEIGHTS NSW 2166",-33.8845442,150.9284322
"167 Bettington St, Merriwa NSW 2329",-32.1391594956232,150.35450760060095
"84-86 Maitland St, MUSWELLBROOK NSW 2333",-32.26891528356011,150.88749340314385
"8 LAW CL, GUNNEDAH NSW 2380",-30.9641286,150.2330698
"82-86 Anson St, Bourke NSW 2840",-30.0920974,145.9201379
"Mount St & Middle St, Gundagai NSW 2722",-35.0614045,148.1059794
"2-6 General Holmes Drive, Brighton-Le-Sands NSW 2216",-33.95787945,151.15751226524083
"2 Alison Rd, RANDWICK NSW 2031",-33.90674985,151.23257010641697
"2900 REMEMBRANCE DVWY, BARGO NSW 2574",-34.2444713,150.576607
"14 Fishing Point Rd, Rathmines NSW 2283",-33.043706,151.5932691
"474-478 Rocky Point Rd, SANS SOUCI NSW 2219",-33.99797586471391,151.12848755355864
"403 Argyle St, Picton NSW 2571",-34.16302957006489,150.61548844105263
"2-4 RAILWAY ST, EAST CORRIMAL NSW 2518",-34.3740737,150.9050925
"Cnr Oxford St & Greens Rd, PADDINGTON NSW 2021",51.5163047,-0.1792423
"136 Gladstone St, Coniston NSW 2500",-34.4426117,150.8764535
"67 Orange Grove Road, Liverpool NSW 2170",-33.90908613976691,150.91892342664076
"184 Smith Street, South Penrith NSW 2750",-33.743941163257794,150.67071841602348
"7 WOOLI ST, YAMBA NSW 2464",-29.4374989,153.3542741
"20 Waratah Street, Bendalong NSW 2539",-35.24650115,150.53172574552133
"47-57 Princess Highway, ALBION PARK RAIL NSW 2527",-34.5625775,150.7978168
"577 Great Western Hwy, WERRINGTON NSW 2747",-33.768908920323916,150.7608472193741
"Cnr Captain Cook Dve & Cawarra Rd, Caringbah NSW 2229",-34.0354477,151.1248018
"1 PARK ST, GLOUCESTER NSW 2422",-32.0048485,151.9578581
"125 Dora Street, Morisset NSW 2264",-33.1122131,151.4803678
"13-15 Doonside Rd, Doonside NSW 2767",-33.77382118751488,150.87415510687734
"624 YOUNG ST, ALBURY NSW 2640",-36.0726159,146.9257375
"49-51 Maitland St, MUSWELLBROOK NSW 2333",-32.2721171,150.8900986
"175 Richmond Road, Blacktown NSW 2148",-33.7553976982542,150.89181516046648
"357-361 Summer St (Cnr William), Orange NSW 2800",33.750631,-117.8722311
"110 AUDLEY ST, NARRANDERA NSW 2700",-34.7468788,146.5419181
"102 Commerce Street, Taree NSW 2430",-31.90717565,152.45006850338987
"1497 Pittwater Road & Gondola Street, Narrabeen NSW 2101",-33.7135699,151.2978164
"136-140 Adelaide Street, BLAYNEY NSW 2799",-33.5285144,149.2560442
"651 Princes Highway, Rockdale NSW 2216",-33.9591901,151.1376967
"148 SUNNYHOLT RD, BLACKTOWN NSW 2148",-33.77048609546622,150.91190497267655
"164 William Street, Broken Hill NSW 2880",-31.965,141.4511111
"68 Duri Road, TAMWORTH NSW 2340",-31.1010331,150.9048386
"6-8 MINJUNGBAL DR, TWEED HEADS SOUTH NSW 2486",-28.2080919,153.5448721
"Glassey Pl & Cnr Clarey Cres, Spence ACT 2615",-35.1987316,149.0643556
Corner Pacific Hwy and Halls Road Coffs Harbour NSW 2450,-30.2985996,153.1094116
"21 QUEEN ST, BARRABA NSW 2347",-30.3825302,150.6098072
"1609 Ocean Drive, Lake Cathie NSW 2445",-31.518286779545505,152.882825638282
"95 Elizabeth Drive (Corner Park Road), Liverpool NSW 2170",53.4071991,-2.99168
"Corner Hume Street And Ducks Lane, GOULBURN NSW 2580",-34.7523871,149.7198009
"133 GAN GAN RD, ANNA BAY NSW 2316",-32.7711295,152.0755678
"2 Waite Street, Moss Vale NSW 2577",-34.54919449845149,150.3672880040205
"Cnr Patrick & Watkins Streets, Merewether NSW 2291",-32.9475708,151.7454773
"271 Princes Hwy, BOMADERRY NSW 2541",-34.840855950000005,150.5939923887235
"283 Great Western Hwy (Cnr Russell St), Emu Plains NSW 2750",-33.7483333,150.6677778
"47 Plain St, Tamworth NSW 2340",-31.0850542,150.9173819
"166 Marius Street, TAMWORTH NSW 2340",-31.0795095,150.9228056
"403 Tarean Street, Karuah NSW 2324",-32.6544444,151.9655556
"1063 Lemon Tree Passage Rd, TANILBA BAY NSW 2319",-32.7368572,152.0001148
"136 Pacific Highway, Coffs Harbour NSW 2450",-30.348186951616672,153.06546276788183
"17 Rose Street, Wee Waa NSW 2388",-30.2229368,149.4486923
"105 BENT ST, SOUTH GRAFTON NSW 2460",-29.7313437,152.9209968
"431 The Entrance Rd, LONG JETTY NSW 2261",-33.3601033,151.4828675519608
"100 Hastings River Dr, PORT MACQUARIE NSW 2444",-31.4324224,152.8917814
"326-328 Blaxland Road, Ryde NSW 2112",-33.79709671316293,151.09392301320045
"1 ENDEAVOUR DR, ARMIDALE NSW 2350",-30.53525895,151.61373390078637
"2 The Lakes Way, Forster NSW 2428",-32.17984425,152.5121075551379
"142 Marsh St, ARMIDALE NSW 2350",-30.5171009,151.66758470899896
"1-7 Buchanan St, SOUTH MURWILLUMBAH NSW 2484",-28.329364842012634,153.4093166638527
"378 Pacific Hwy (Cnr Allison Ave), Lane Cove NSW 2066",-33.8232026,151.16971475129134
"481 LUXFORD RD, SHALVEY NSW 2770",-33.728137029343046,150.81250340779638
"112-114 Ramsgate Rd, Ramsgate NSW 2217",-33.984616723609705,151.1394252836063
"160-162 Jerilderie Street, BERRIGAN NSW 2712",-35.653282818793414,145.80947506946626
"76-78 Shirley Street, Byron Bay NSW 2481",-28.6406442,153.6070787
"60 Riverside, Airds NSW 2560",-34.08121659093726,150.83864765128612
"Cnr Wilbur & Kingsway Streets, Cronulla NSW 2230",-34.0575259,151.1523851
"61 BUCKENBAH ST, GEURIE NSW 2818",-32.3977534,148.8294449
"92 Mulgoa Road & Batt Street, Jamisontown NSW 2750",-33.7679769,150.674815
"752 Pacific Highway, Boambee NSW 2450",-30.348186951616672,153.06546276788183
"96 Solitary Islands Way, SAPPHIRE BEACH NSW 2450",-30.2308076,153.1478423
"100 Princes Hwy Cnr Browns Rd, South Nowra NSW 2541",-34.9102778,150.5963889
"442 Punchbowl Rd, BELMORE NSW 2192",-33.90788615831977,151.07651509991146
"164 Warrimoo Avenue, St Ives Chase NSW 2075",-33.7073449313304,151.16392670424477
"28 HIGH ST, GRETA NSW 2334",-32.6807616,151.3915789
"369 Pacific Highway, Heatherbrae NSW 2324",-32.77822290100387,151.75208236145826
"1 Jacobs Dr, SUSSEX INLET NSW 2540",-35.15677008014924,150.60042964884198
"487 Princess Hwy, Kirrawee NSW 2232",-34.0344781,151.0726428
"595 Ocean Dr, NORTH HAVEN NSW 2443",-31.6194414,152.8311972
"1715 Yass Valley Way, Yass NSW 2582",-34.8409699,148.9102247
"101 Hammond Avenue, Wagga Wagga NSW 2650",-35.1205841,147.3804247
"60 Glenn Street, Belrose NSW 2085",-33.730009,151.2191438
"49 Canterbury Road, BANKSTOWN NSW 2200",-33.934571700000006,151.03542865
"226 MAYNE ST, MURRURUNDI NSW 2338",-31.7640145,150.8353983
"289 CANBERRA AV, FYSHWICK ACT 2609",-35.3340078,149.170335
"244 Hawkesbury Valley Way, CLARENDON NSW 2756",-33.60902625,150.8017312
"1 Gregory Hills Drive, GREGORY HILLS NSW 2557",-34.02530379971703,150.77348769487915
"Molly Morgan Drive (Stockland Green Hills), East Maitland NSW 2323",-32.7575206,151.5854642
"76 Lascelles St, Braidwood NSW 2622",-35.44620515,149.8020099
"5 Hanrahan Place, ORANGE NSW 2800",-33.25923,149.1143626
"96 Sawmill Cct, Hume ACT 2620",-35.3991053,149.1604531
"593 Main Rd, Glendale NSW 2285",-32.92898851189511,151.64184485712855
"429 Moama Street, Hay NSW 2711",-34.5201701,144.838101
"Lot 1 Great Western Highway (Cnr Rydal Rd), South Bowenfels NSW 2790",-33.5135892,150.1203382
"61 Brown Road, Bonnyrigg NSW 2177",-33.894879660980294,150.88162485049315
"132 MAITLAND RD, MAYFIELD NSW 2304",-32.9019392,151.7427167
"477 Banna Avenue, Griffith NSW 2680",-34.289747408206125,146.05974328796754
"99 Jericho Road, Moorland NSW 2443",-31.8024663,152.6443166
"226 WALLAMORE RD, WESTDALE NSW 2340",-31.0627139,150.8562246
"271A Victoria Road, Drummoyne NSW 2047",-33.84976247083129,151.15354696199313
"515 Young Street, Albury NSW 2640",-36.0726159,146.9257375
"96-98 Kennedy Dr Cnr Barrett St, Tweed Heads West NSW 2485",-28.1885679,153.5032351
"34-38 Peisley Street, Orange NSW 2800",-33.293060600475016,149.10188564045066
"43 Ferguson Street, CANOWINDRA NSW 2804",-33.56233504886953,148.66614399518045
"6 Fordham Way, Oran Park NSW 2570",-34.00052612283841,150.73886513965763
"1 Myall Quays Boulevard, Tea Gardens NSW 2324",-32.6622727,152.155692
"360 New England Hwy, Rutherford NSW 2320",-32.7099156,151.51670995659742
"2 Kathleen St, SOUTH TAMWORTH NSW 2340",-31.1076564,150.9185377
"297 WATKINS RD, WANGI WANGI NSW 2267",-33.0740195,151.6100096
"106 Milperra Rd, Revesby NSW 2212",-33.93436983806371,151.00575645563623
"Hume Highway, TARCUTTA NSW 2652",-35.3091097,147.6835457
"35 Alison Rd, WYONG NSW 2259",-33.2793305,151.4176854
"449 Captain Cook Drive, Woolooware NSW 2230",-34.03894984743526,151.1371134087482
"45 Lane Cove Rd & Myra Ave, Ryde NSW 2112",50.7299865,-1.1603699
"157 ORLANDO ST, COFFS HARBOUR NSW 2450",-30.3027449,153.1382085
"321 Gardeners Rd, ROSEBERY NSW 2018",-33.92223908498187,151.20201845488023
"917-923 Old Northern Rd, DURAL NSW 2158",-33.681491438663755,151.02851294942562
"556 SNOWY MOUNTAINS HWY, DAIRYMANS PLAINS NSW 2630",-36.2449486,149.05616
"149 ELDRIDGE RD, CONDELL PARK NSW 2200",-33.93048206649343,151.00921313529165
"47 Railway Street, Weethalle NSW 2669",-33.8764574,146.6184012
"3055 New England Highway, WALLABADAH NSW 2343",-31.443917,150.8768766
"126-128 OLD BATHURST RD, EMU HEIGHTS NSW 2750",-33.741591605178755,150.64391781507203
"4 Lancaster St, Ingleburn NSW 2565",-33.9891482,150.866631
"127 GREAT WESTERN HWY, KINGSWOOD NSW 2747",-33.7572236,150.71338425
"1 Illabo Rd,, Junee NSW 2663",-34.8569133,147.5857878
"320 Polding St, FAIRFIELD WEST NSW 2165",-33.860370865923,150.92740390587917
"Corner Pacific Highway and Midge Street, Coolongolook NSW 2423",-32.2172222,152.3219444
"24 Wooland Rd, St Helens Park NSW 2560",-34.1066667,150.8094444
"22 COOPER ST, MACKSVILLE NSW 2447",-30.7097815,152.9198773
"62 Railway Parade, Fairfield NSW 2165",-33.87590486911534,150.95315052715463
"6425 Newell Hwy, GILGANDRA NSW 2827",-31.7255433,148.6531893
"1 Avenue of the Americas, Newington NSW 2127",-33.83366237522529,151.05538504144116
"212-222 Andrews & Castlereagh Roads, Cranebrook NSW 2749",-33.7048583,150.70641
"95-97 Ramsay St, HABERFIELD NSW 2045",-33.87434303013771,151.13392057131554
"31 Dangar St, NARRABRI NSW 2390",-30.332058,149.7740766
"8451 Pacific Highway, Urunga NSW 2455",-30.494349,153.0155125
"Corner Pacific Highway and Boundary Street, Roseville NSW 2069",38.7521235,-121.2880059
"5 YARUN RD, TYAGARAH NSW 2481",-28.5985,153.5512
"701 Medowie Road, Medowie NSW 2318",-32.7204455,151.8638758
"137 Hardinge St, Deniliquin NSW 2710",-35.5256739,144.9636635
"234 Hamilton Road, Fairfield West NSW 2165",-33.867440200000004,150.9129099
"552 Pennant Hills Road, West Pennant Hills NSW 2125",-33.7467992,151.05063239999998
"105 Station Rd Cnr Powers St, Seven Hills NSW 2147",41.3953304,-81.6762392
"55 Central Coast Highway, Gosford West NSW 2250",-33.427308,151.3296167
"740-742 Pittwater Rd, BROOKVALE NSW 2100",-33.76148035,151.27437077436252
"61 Maitland Road, SANDGATE NSW 2304",51.0743788,1.1487129
"93A WALLSEND ST, KAHIBAH NSW 2290",-32.96499378345343,151.70976650869528
"4 Industry Avenue, NARROMINE NSW 2821",-32.239285,148.2601064
"899 Victoria Road, West Ryde NSW 2114",-33.8105922,151.09421378641125
"160 Fox St, Walgett NSW 2832",-30.0293521,148.1153581
"16 Coonamble Street, Gulargambone NSW 2828",-31.3334787,148.4726888
"13 CASTLEREAGH ST, GILGANDRA NSW 2827",-31.7170952,148.65829435835474
